Frame, Timestamp, Time_of_day, Day_of_year, Longitude, Latitude, Altitude, Pitch, Roll, Yaw, Rain_ratio, Visibility, Snow_now
6, 0.05469, 20538.00, 105.00, 116.61498929, 39.96103585, 611.25445780, 2.95846462, 0.14504832, 353.06405640, 0.9973, 86.2009, 6.3300
7, 0.10938, 20538.00, 105.00, 116.61498062, 39.96108841, 610.96561887, 2.98851633, 0.17227016, 353.05499268, 0.9973, 86.1974, 6.3300
8, 0.17188, 20538.00, 105.00, 116.61497151, 39.96114372, 610.66385113, 3.01874399, 0.20002803, 353.04501343, 0.9973, 86.1933, 6.3300
9, 0.22656, 20538.00, 105.00, 116.61496282, 39.96119644, 610.37840738, 3.04621291, 0.22551163, 353.03518677, 0.9973, 86.1898, 6.3300
10, 0.28125, 20538.00, 105.00, 116.61495404, 39.96124973, 610.09208073, 3.07266569, 0.25023752, 353.02490234, 0.9973, 86.1862, 6.3300
11, 0.33594, 20538.00, 105.00, 116.61494518, 39.96130352, 609.80522638, 3.09809422, 0.27412722, 353.01425171, 0.9973, 86.1827, 6.3300
12, 0.39063, 20538.00, 105.00, 116.61493633, 39.96135729, 609.52078965, 3.12229538, 0.29693064, 353.00341797, 0.9973, 86.1786, 6.3300
13, 0.44531, 20538.00, 105.00, 116.61492791, 39.96140844, 609.25221777, 3.14422941, 0.31768045, 352.99295044, 0.9973, 86.1750, 6.3300
14, 0.50000, 20538.00, 105.00, 116.61491951, 39.96145946, 608.98639088, 3.16511154, 0.33749041, 352.98236084, 0.9973, 86.1715, 6.3300
15, 0.55469, 20538.00, 105.00, 116.61491095, 39.96151151, 608.71727510, 3.18565583, 0.35683578, 352.97149658, 0.9973, 86.1679, 6.3300
16, 0.60938, 20538.00, 105.00, 116.61490220, 39.96156470, 608.44434462, 3.20615840, 0.37577102, 352.96029663, 0.9973, 86.1644, 6.3300
17, 0.67188, 20538.00, 105.00, 116.61489336, 39.96161850, 608.17047737, 3.22665739, 0.39413270, 352.94900513, 0.9973, 86.1608, 6.3300
18, 0.72656, 20538.00, 105.00, 116.61488452, 39.96167232, 607.89857414, 3.24717093, 0.41177627, 352.93774414, 0.9973, 86.1573, 6.3300
19, 0.78125, 20538.00, 105.00, 116.61487564, 39.96172635, 607.62777845, 3.26795411, 0.42879403, 352.92648315, 0.9973, 86.1532, 6.3300
20, 0.84375, 20538.00, 105.00, 116.61486673, 39.96178058, 607.35806800, 3.28922939, 0.44182009, 352.91531372, 0.9973, 86.1496, 6.3300
21, 0.89844, 20538.00, 105.00, 116.61485781, 39.96183492, 607.08984656, 3.31119728, 0.44678134, 352.90420532, 0.9973, 86.1461, 6.3300
22, 0.96094, 20538.00, 105.00, 116.61484868, 39.96189059, 606.81719601, 3.33447146, 0.44304237, 352.89288330, 0.9973, 86.1420, 6.3300
23, 1.02344, 20538.00, 105.00, 116.61483895, 39.96194988, 606.52913497, 3.36004400, 0.43290758, 352.88104248, 0.9973, 86.1380, 6.3300
24, 1.07813, 20538.00, 105.00, 116.61483019, 39.96200330, 606.27172039, 3.38360000, 0.42311504, 352.87054443, 0.9973, 86.1344, 6.3300
25, 1.13281, 20538.00, 105.00, 116.61482131, 39.96205742, 606.01309965, 3.40781188, 0.41321626, 352.86019897, 0.9973, 86.1309, 6.3300
26, 1.18750, 20538.00, 105.00, 116.61481261, 39.96211051, 605.76151060, 3.43145442, 0.40358156, 352.85028076, 0.9973, 86.1273, 6.3300
27, 1.24219, 20538.00, 105.00, 116.61480390, 39.96216368, 605.51170872, 3.45459485, 0.39402005, 352.84063721, 0.9973, 86.1232, 6.3300
28, 1.29688, 20538.00, 105.00, 116.61479518, 39.96221691, 605.26378844, 3.47686577, 0.38454226, 352.83126831, 0.9973, 86.1197, 6.3300
29, 1.35938, 20538.00, 105.00, 116.61478645, 39.96227022, 605.01770654, 3.49798870, 0.37515306, 352.82214355, 0.9973, 86.1161, 6.3300
30, 1.42188, 20538.00, 105.00, 116.61477687, 39.96232874, 604.75012824, 3.51956010, 0.36497259, 352.81256104, 0.9973, 86.1121, 6.3300
31, 1.47656, 20538.00, 105.00, 116.61476781, 39.96238404, 604.49977726, 3.53822184, 0.35548344, 352.80383301, 0.9973, 86.1085, 6.3300
32, 1.53125, 20538.00, 105.00, 116.61475894, 39.96243824, 604.25668925, 3.55478144, 0.34631136, 352.79565430, 0.9973, 86.1044, 6.3300
33, 1.59375, 20538.00, 105.00, 116.61475034, 39.96249083, 604.02293909, 3.56913733, 0.33753869, 352.78805542, 0.9973, 86.1009, 6.3300
34, 1.64844, 20538.00, 105.00, 116.61474155, 39.96254455, 603.78631125, 3.58294511, 0.32871661, 352.78073120, 0.9973, 86.0973, 6.3300
35, 1.70313, 20538.00, 105.00, 116.61473255, 39.96259955, 603.54613202, 3.59654140, 0.31983063, 352.77359009, 0.9973, 86.0933, 6.3300
36, 1.76563, 20538.00, 105.00, 116.61472372, 39.96265355, 603.31243639, 3.60908198, 0.31125766, 352.76702881, 0.9973, 86.0897, 6.3300
37, 1.82031, 20538.00, 105.00, 116.61471505, 39.96270659, 603.08492975, 3.62036586, 0.30298820, 352.76098633, 0.9973, 86.0862, 6.3300
38, 1.87500, 20538.00, 105.00, 116.61470607, 39.96276153, 602.85131840, 3.63075161, 0.29458261, 352.75509644, 0.9973, 86.0826, 6.3300
39, 1.93750, 20538.00, 105.00, 116.61469718, 39.96281592, 602.62206500, 3.63957834, 0.28642523, 352.74972534, 0.9973, 86.0786, 6.3300
40, 1.99219, 20538.00, 105.00, 116.61468847, 39.96286923, 602.39937482, 3.64660954, 0.27859533, 352.74490356, 0.9973, 86.0750, 6.3300
41, 2.04688, 20538.00, 105.00, 116.61467976, 39.96292249, 602.17873991, 3.65170455, 0.27093408, 352.74050903, 0.9973, 86.0714, 6.3300
42, 2.10156, 20538.00, 105.00, 116.61467112, 39.96297536, 601.96163093, 3.65452290, 0.26349476, 352.73648071, 0.9973, 86.0679, 6.3300
43, 2.16406, 20538.00, 105.00, 116.61466272, 39.96302678, 601.75217443, 3.65487790, 0.25641707, 352.73300171, 0.9973, 86.0643, 6.3300
44, 2.22656, 20538.00, 105.00, 116.61465325, 39.96308477, 601.51800245, 3.65220046, 0.24862762, 352.72955322, 0.9973, 86.0603, 6.3300
45, 2.28125, 20538.00, 105.00, 116.61464303, 39.96314730, 601.26781696, 3.64546847, 0.24045853, 352.72637939, 0.9973, 86.0557, 6.3300
46, 2.34375, 20538.00, 105.00, 116.61463418, 39.96320151, 601.05269926, 3.63640285, 0.23356628, 352.72402954, 0.9973, 86.0521, 6.3300
47, 2.39844, 20538.00, 105.00, 116.61462559, 39.96325412, 600.84547236, 3.62470102, 0.22705020, 352.72216797, 0.9973, 86.0486, 6.3300
48, 2.46094, 20538.00, 105.00, 116.61461575, 39.96331432, 600.61008060, 3.60779548, 0.21980408, 352.72052002, 0.9973, 86.0445, 6.3300
49, 2.51563, 20538.00, 105.00, 116.61460670, 39.96336979, 600.39467225, 3.58907819, 0.21332353, 352.71942139, 0.9973, 86.0405, 6.3300
50, 2.57031, 20538.00, 105.00, 116.61459823, 39.96342162, 600.19452202, 3.56904626, 0.20743670, 352.71875000, 0.9973, 86.0369, 6.3300
51, 2.62500, 20538.00, 105.00, 116.61458975, 39.96347360, 599.99484323, 3.54663587, 0.20169869, 352.71844482, 0.9973, 86.0334, 6.3300
52, 2.68750, 20538.00, 105.00, 116.61458119, 39.96352603, 599.79429562, 3.52193832, 0.19607650, 352.71850586, 0.9973, 86.0298, 6.3300
53, 2.74219, 20538.00, 105.00, 116.61457217, 39.96358123, 599.58393457, 3.49410081, 0.19033568, 352.71890259, 0.9973, 86.0263, 6.3300
54, 2.80469, 20538.00, 105.00, 116.61456347, 39.96363455, 599.38136211, 3.46588016, 0.18496235, 352.71963501, 0.9973, 86.0222, 6.3300
55, 2.85938, 20538.00, 105.00, 116.61455447, 39.96368967, 599.17241468, 3.43573976, 0.17958313, 352.72076416, 0.9973, 86.0186, 6.3300
56, 2.92188, 20538.00, 105.00, 116.61454539, 39.96374527, 598.96194081, 3.40470004, 0.17433436, 352.72225952, 0.9973, 86.0146, 6.3300
57, 2.97656, 20538.00, 105.00, 116.61453613, 39.96380198, 598.74743988, 3.37272072, 0.16916198, 352.72409058, 0.9973, 86.0110, 6.3300
58, 3.03125, 20538.00, 105.00, 116.61452760, 39.96385429, 598.54957192, 3.34317040, 0.16454864, 352.72610474, 0.9973, 86.0075, 6.3300
59, 3.08594, 20538.00, 105.00, 116.61451920, 39.96390571, 598.35494696, 3.31423330, 0.16015922, 352.72833252, 0.9973, 86.0039, 6.3300
60, 3.14063, 20538.00, 105.00, 116.61451060, 39.96395841, 598.15491024, 3.28441882, 0.15580690, 352.73089600, 0.9973, 85.9998, 6.3300
61, 3.19531, 20538.00, 105.00, 116.61450209, 39.96401056, 597.95617337, 3.25474286, 0.15164286, 352.73367310, 0.9973, 85.9963, 6.3300
62, 3.25781, 20538.00, 105.00, 116.61449357, 39.96406276, 597.75635555, 3.22501636, 0.14761324, 352.73666382, 0.9973, 85.9927, 6.3300
63, 3.31250, 20538.00, 105.00, 116.61448457, 39.96411791, 597.54423539, 3.19373870, 0.14350557, 352.74011230, 0.9973, 85.9892, 6.3300
64, 3.36719, 20538.00, 105.00, 116.61447611, 39.96416973, 597.34386112, 3.16459346, 0.13978027, 352.74353027, 0.9973, 85.9856, 6.3300
65, 3.42188, 20538.00, 105.00, 116.61446750, 39.96422247, 597.13880117, 3.13527822, 0.13611986, 352.74722290, 0.9973, 85.9821, 6.3300
66, 3.47656, 20538.00, 105.00, 116.61445866, 39.96427665, 596.92689174, 3.10560369, 0.13249382, 352.75119019, 0.9973, 85.9780, 6.3300
67, 3.53125, 20538.00, 105.00, 116.61445023, 39.96432833, 596.72353203, 3.07777143, 0.12915823, 352.75515747, 0.9973, 85.9744, 6.3300
68, 3.58594, 20538.00, 105.00, 116.61444178, 39.96438009, 596.51853998, 3.05039239, 0.12593341, 352.75924683, 0.9973, 85.9709, 6.3300
69, 3.64844, 20538.00, 105.00, 116.61443319, 39.96443273, 596.30872865, 3.02308536, 0.12277085, 352.76354980, 0.9973, 85.9673, 6.3300
70, 3.70313, 20538.00, 105.00, 116.61442425, 39.96448754, 596.08869030, 2.99522066, 0.11959789, 352.76815796, 0.9973, 85.9638, 6.3300
71, 3.75781, 20538.00, 105.00, 116.61441536, 39.96454202, 595.86842958, 2.96810436, 0.11656266, 352.77285767, 0.9973, 85.9597, 6.3300
72, 3.82031, 20538.00, 105.00, 116.61440686, 39.96459409, 595.65634427, 2.94271088, 0.11376721, 352.77743530, 0.9973, 85.9562, 6.3300
73, 3.87500, 20538.00, 105.00, 116.61439823, 39.96464698, 595.43937342, 2.91743636, 0.11103075, 352.78216553, 0.9973, 85.9526, 6.3300
74, 3.92969, 20538.00, 105.00, 116.61438977, 39.96469882, 595.22512244, 2.89314008, 0.10844526, 352.78686523, 0.9973, 85.9491, 6.3300
75, 3.98438, 20538.00, 105.00, 116.61438123, 39.96475120, 595.00705628, 2.86906481, 0.10592751, 352.79168701, 0.9973, 85.9455, 6.3300
76, 4.03906, 20538.00, 105.00, 116.61437258, 39.96480425, 594.78449292, 2.84513974, 0.10346993, 352.79660034, 0.9973, 85.9419, 6.3300
77, 4.09375, 20538.00, 105.00, 116.61436400, 39.96485683, 594.56219006, 2.82182169, 0.10112246, 352.80145264, 0.9973, 85.9379, 6.3300
78, 4.14844, 20538.00, 105.00, 116.61435548, 39.96490902, 594.33985858, 2.79898047, 0.09887604, 352.80630493, 0.9973, 85.9343, 6.3300
79, 4.21094, 20538.00, 105.00, 116.61434685, 39.96496193, 594.11276732, 2.77602410, 0.09668103, 352.81127930, 0.9973, 85.9308, 6.3300
80, 4.26563, 20538.00, 105.00, 116.61433815, 39.96501527, 593.88198635, 2.75294614, 0.09454688, 352.81619263, 0.9973, 85.9272, 6.3300
81, 4.32031, 20538.00, 105.00, 116.61432964, 39.96506748, 593.65440008, 2.73030972, 0.09253265, 352.82101440, 0.9973, 85.9237, 6.3300
82, 4.37500, 20538.00, 105.00, 116.61432124, 39.96511899, 593.42814280, 2.70781922, 0.09061333, 352.82571411, 0.9973, 85.9201, 6.3300
83, 4.42969, 20538.00, 105.00, 116.61431264, 39.96517173, 593.19470757, 2.68454647, 0.08871523, 352.83050537, 0.9973, 85.9166, 6.3300
84, 4.48438, 20538.00, 105.00, 116.61430421, 39.96522340, 592.96427106, 2.66145134, 0.08691835, 352.83514404, 0.9973, 85.9130, 6.3300
85, 4.53906, 20538.00, 105.00, 116.61429570, 39.96527563, 592.72957127, 2.63778830, 0.08516195, 352.83975220, 0.9973, 85.9095, 6.3300
86, 4.59375, 20538.00, 105.00, 116.61428742, 39.96532640, 592.49965452, 2.61449146, 0.08350958, 352.84417725, 0.9973, 85.9059, 6.3300
87, 4.64844, 20538.00, 105.00, 116.61427901, 39.96537796, 592.26439263, 2.59059238, 0.08188411, 352.84857178, 0.9973, 85.9023, 6.3300
88, 4.70313, 20538.00, 105.00, 116.61427032, 39.96543129, 592.01909088, 2.56571031, 0.08025523, 352.85299683, 0.9973, 85.8983, 6.3300
89, 4.76563, 20538.00, 105.00, 116.61426175, 39.96548382, 591.77554127, 2.54118896, 0.07870079, 352.85729980, 0.9973, 85.8947, 6.3300
90, 4.82031, 20538.00, 105.00, 116.61425342, 39.96553492, 591.53673499, 2.51745486, 0.07723310, 352.86138916, 0.9973, 85.8912, 6.3300
91, 4.87500, 20538.00, 105.00, 116.61424468, 39.96558854, 591.28409662, 2.49279499, 0.07573768, 352.86557007, 0.9973, 85.8876, 6.3300
92, 4.92969, 20538.00, 105.00, 116.61423606, 39.96564145, 591.03273584, 2.46881294, 0.07430353, 352.86950684, 0.9973, 85.8841, 6.3300
93, 4.99219, 20538.00, 105.00, 116.61422720, 39.96569584, 590.77216483, 2.44460988, 0.07287045, 352.87347412, 0.9973, 85.8800, 6.3300
94, 5.04688, 20538.00, 105.00, 116.61421857, 39.96574876, 590.51652110, 2.42157125, 0.07151327, 352.87716675, 0.9973, 85.8764, 6.3300
95, 5.10156, 20538.00, 105.00, 116.61421001, 39.96580129, 590.26066197, 2.39925432, 0.07020018, 352.88070679, 0.9973, 85.8729, 6.3300
96, 5.15625, 20538.00, 105.00, 116.61420153, 39.96585332, 590.00515396, 2.37772655, 0.06893052, 352.88403320, 0.9973, 85.8693, 6.3300
97, 5.21875, 20538.00, 105.00, 116.61419225, 39.96591031, 589.72291326, 2.35483742, 0.06757342, 352.88757324, 0.9973, 85.8653, 6.3300
98, 5.27344, 20538.00, 105.00, 116.61418353, 39.96596382, 589.45564737, 2.33400893, 0.06632844, 352.89074707, 0.9973, 85.8617, 6.3300
99, 5.32813, 20538.00, 105.00, 116.61417519, 39.96601500, 589.19793386, 2.31470251, 0.06516209, 352.89361572, 0.9973, 85.8582, 6.3300
100, 5.38281, 20538.00, 105.00, 116.61416675, 39.96606686, 588.93476399, 2.29575491, 0.06400333, 352.89636230, 0.9973, 85.8546, 6.3300
101, 5.43750, 20538.00, 105.00, 116.61415816, 39.96611960, 588.66501223, 2.27711058, 0.06284640, 352.89898682, 0.9973, 85.8511, 6.3300
102, 5.49219, 20538.00, 105.00, 116.61414965, 39.96617185, 588.39569288, 2.25924826, 0.06172071, 352.90145874, 0.9973, 85.8475, 6.3300
103, 5.54688, 20538.00, 105.00, 116.61414111, 39.96622431, 588.12317990, 2.24190426, 0.06060899, 352.90377808, 0.9973, 85.8434, 6.3300
104, 5.60938, 20538.00, 105.00, 116.61413268, 39.96627604, 587.85240237, 2.22536397, 0.05952944, 352.90591431, 0.9973, 85.8399, 6.3300
105, 5.66406, 20538.00, 105.00, 116.61412405, 39.96632909, 587.57261210, 2.20896363, 0.05843792, 352.90792847, 0.9973, 85.8363, 6.3300
106, 5.71875, 20538.00, 105.00, 116.61411564, 39.96638072, 587.29827187, 2.19352579, 0.05738973, 352.90972900, 0.9973, 85.8328, 6.3300
107, 5.77344, 20538.00, 105.00, 116.61410708, 39.96643327, 587.01703743, 2.17832708, 0.05633590, 352.91140747, 0.9973, 85.8292, 6.3300
108, 5.82813, 20538.00, 105.00, 116.61409864, 39.96648517, 586.73723036, 2.16379857, 0.05530678, 352.91293335, 0.9973, 85.8257, 6.3300
109, 5.88281, 20538.00, 105.00, 116.61409032, 39.96653628, 586.45978447, 2.14994931, 0.05430345, 352.91424561, 0.9973, 85.8221, 6.3300
110, 5.93750, 20538.00, 105.00, 116.61408200, 39.96658737, 586.18054235, 2.13654017, 0.05331011, 352.91543579, 0.9973, 85.8186, 6.3300
111, 5.99219, 20538.00, 105.00, 116.61407361, 39.96663895, 585.89677430, 2.12342334, 0.05231588, 352.91650391, 0.9973, 85.8150, 6.3300
112, 6.04688, 20538.00, 105.00, 116.61406513, 39.96669104, 585.60821226, 2.11057186, 0.05131953, 352.91738892, 0.9973, 85.8114, 6.3300
113, 6.10156, 20538.00, 105.00, 116.61405670, 39.96674285, 585.31933603, 2.09815645, 0.05033583, 352.91815186, 0.9973, 85.8079, 6.3300
114, 6.15625, 20538.00, 105.00, 116.61404827, 39.96679468, 585.02845742, 2.08607173, 0.04935849, 352.91879272, 0.9973, 85.8043, 6.3300
115, 6.21094, 20538.00, 105.00, 116.61403971, 39.96684729, 584.73132581, 2.07412362, 0.04837226, 352.91931152, 0.9973, 85.8008, 6.3300
116, 6.27344, 20538.00, 105.00, 116.61403122, 39.96689946, 584.43480715, 2.06257105, 0.04739936, 352.91961670, 0.9973, 85.7967, 6.3300
117, 6.32813, 20538.00, 105.00, 116.61402249, 39.96695309, 584.12808208, 2.05098820, 0.04640458, 352.91983032, 0.9973, 85.7932, 6.3300
118, 6.38281, 20538.00, 105.00, 116.61401424, 39.96700386, 583.83602785, 2.04029417, 0.04546749, 352.91992188, 0.9973, 85.7896, 6.3300
119, 6.43750, 20538.00, 105.00, 116.61400582, 39.96705561, 583.53655448, 2.02967191, 0.04451630, 352.91992188, 0.9973, 85.7861, 6.3300
120, 6.51563, 20538.00, 105.00, 116.61399335, 39.96713226, 583.08978642, 2.01447725, 0.04311392, 352.91961670, 0.9973, 85.7810, 6.3300
121, 6.57031, 20538.00, 105.00, 116.61398500, 39.96718359, 582.78851411, 2.00467706, 0.04217904, 352.91931152, 0.9973, 85.7774, 6.3300
122, 6.62500, 20538.00, 105.00, 116.61397674, 39.96723443, 582.48846613, 1.99527550, 0.04125639, 352.91888428, 0.9973, 85.7739, 6.3300
123, 6.67969, 20538.00, 105.00, 116.61396804, 39.96728793, 582.17102245, 1.98572052, 0.04028847, 352.91833496, 0.9973, 85.7698, 6.3300
124, 6.74219, 20538.00, 105.00, 116.61395941, 39.96734099, 581.85449913, 1.97659111, 0.03933175, 352.91766357, 0.9973, 85.7663, 6.3300
125, 6.79688, 20538.00, 105.00, 116.61395011, 39.96739821, 581.51118223, 1.96713686, 0.03830378, 352.91683960, 0.9973, 85.7622, 6.3300
126, 6.85156, 20538.00, 105.00, 116.61394177, 39.96744949, 581.20186527, 1.95901549, 0.03738596, 352.91604614, 0.9973, 85.7586, 6.3300
127, 6.90625, 20538.00, 105.00, 116.61393355, 39.96750006, 580.89540068, 1.95133948, 0.03648409, 352.91516113, 0.9973, 85.7556, 6.3300
128, 6.96094, 20538.00, 105.00, 116.61392535, 39.96755049, 580.58830273, 1.94401276, 0.03558802, 352.91421509, 0.9973, 85.7520, 6.3300
129, 7.01563, 20538.00, 105.00, 116.61391709, 39.96760134, 580.27715064, 1.93695617, 0.03468759, 352.91317749, 0.9973, 85.7485, 6.3300
130, 7.07031, 20538.00, 105.00, 116.61390884, 39.96765207, 579.96532865, 1.93024933, 0.03379308, 352.91207886, 0.9973, 85.7449, 6.3300
131, 7.12500, 20538.00, 105.00, 116.61390056, 39.96770301, 579.65083738, 1.92384899, 0.03289863, 352.91088867, 0.9973, 85.7414, 6.3300
132, 7.17969, 20538.00, 105.00, 116.61389227, 39.96775403, 579.33439709, 1.91777062, 0.03200682, 352.90969849, 0.9973, 85.7378, 6.3300
133, 7.23438, 20538.00, 105.00, 116.61388328, 39.96780932, 578.98997280, 1.91156113, 0.03104539, 352.90832520, 0.9973, 85.7337, 6.3300
134, 7.28906, 20538.00, 105.00, 116.61387491, 39.96786086, 578.66744980, 1.90611660, 0.03015392, 352.90698242, 0.9973, 85.7302, 6.3300
135, 7.34375, 20538.00, 105.00, 116.61386662, 39.96791183, 578.34725165, 1.90106142, 0.02927716, 352.90557861, 0.9973, 85.7266, 6.3300
136, 7.39844, 20538.00, 105.00, 116.61385835, 39.96796272, 578.02622644, 1.89633548, 0.02840715, 352.90420532, 0.9973, 85.7231, 6.3300
137, 7.45313, 20538.00, 105.00, 116.61384997, 39.96801432, 577.69944312, 1.89186835, 0.02753073, 352.90274048, 0.9973, 85.7195, 6.3300
138, 7.50781, 20538.00, 105.00, 116.61384154, 39.96806622, 577.36950279, 1.88770115, 0.02665552, 352.90124512, 0.9973, 85.7160, 6.3300
139, 7.56250, 20538.00, 105.00, 116.61383310, 39.96811812, 577.03835135, 1.88385677, 0.02578689, 352.89971924, 0.9973, 85.7124, 6.3300
140, 7.61719, 20538.00, 105.00, 116.61382467, 39.96817001, 576.70602399, 1.88032985, 0.02492565, 352.89819336, 0.9973, 85.7089, 6.3300
141, 7.67188, 20538.00, 105.00, 116.61381631, 39.96822146, 576.37530073, 1.87714207, 0.02407895, 352.89669800, 0.9973, 85.7053, 6.3300
142, 7.72656, 20538.00, 105.00, 116.61380802, 39.96827247, 576.04632378, 1.87428188, 0.02324704, 352.89514160, 0.9973, 85.7018, 6.3300
143, 7.78125, 20538.00, 105.00, 116.61379979, 39.96832318, 575.71823074, 1.87172973, 0.02242827, 352.89361572, 0.9973, 85.6982, 6.3300
144, 7.83594, 20538.00, 105.00, 116.61379152, 39.96837405, 575.38795477, 1.86945677, 0.02161494, 352.89205933, 0.9973, 85.6946, 6.3300
145, 7.89063, 20538.00, 105.00, 116.61378329, 39.96842473, 575.05794967, 1.86747539, 0.02081362, 352.89056396, 0.9973, 85.6911, 6.3300
146, 7.94531, 20538.00, 105.00, 116.61377506, 39.96847538, 574.72716149, 1.86577129, 0.02002184, 352.88903809, 0.9973, 85.6880, 6.3300
147, 8.00000, 20538.00, 105.00, 116.61376666, 39.96852711, 574.38835799, 1.86431181, 0.01922305, 352.88748169, 0.9973, 85.6845, 6.3300
148, 8.05469, 20538.00, 105.00, 116.61375843, 39.96857777, 574.05554569, 1.86315238, 0.01845086, 352.88598633, 0.9973, 85.6809, 6.3300
149, 8.11719, 20538.00, 105.00, 116.61374998, 39.96862975, 573.71312975, 1.86223650, 0.01766912, 352.88442993, 0.9973, 85.6774, 6.3300
150, 8.17188, 20538.00, 105.00, 116.61374096, 39.96868529, 573.34626224, 1.86155963, 0.01684685, 352.88284302, 0.9973, 85.6733, 6.3300
151, 8.22656, 20538.00, 105.00, 116.61373208, 39.96873998, 572.98398326, 1.86119127, 0.01605015, 352.88128662, 0.9973, 85.6693, 6.3300
152, 8.28125, 20538.00, 105.00, 116.61372364, 39.96879193, 572.63905053, 1.86116076, 0.01530614, 352.87985229, 0.9973, 85.6657, 6.3300
153, 8.33594, 20538.00, 105.00, 116.61371537, 39.96884280, 572.30076877, 1.86183023, 0.01458966, 352.87847900, 0.9973, 85.6621, 6.3300
154, 8.39063, 20538.00, 105.00, 116.61370715, 39.96889339, 571.96404872, 1.86323905, 0.01388935, 352.87713623, 0.9973, 85.6591, 6.3300
155, 8.44531, 20538.00, 105.00, 116.61369885, 39.96894451, 571.62348682, 1.86533868, 0.01319481, 352.87579346, 0.9973, 85.6555, 6.3300
156, 8.50000, 20538.00, 105.00, 116.61369030, 39.96899715, 571.27245304, 1.86812198, 0.01249327, 352.87445068, 0.9973, 85.6515, 6.3300
157, 8.55469, 20538.00, 105.00, 116.61368202, 39.96904815, 570.93210869, 1.87132740, 0.01182736, 352.87319946, 0.9973, 85.6479, 6.3300
158, 8.60938, 20538.00, 105.00, 116.61367368, 39.96909947, 570.58936567, 1.87497497, 0.01117134, 352.87200928, 0.9973, 85.6444, 6.3300
159, 8.66406, 20538.00, 105.00, 116.61366541, 39.96915040, 570.24892193, 1.87893355, 0.01053379, 352.87081909, 0.9973, 85.6413, 6.3300
160, 8.71875, 20538.00, 105.00, 116.61365701, 39.96920211, 569.90315376, 1.88322175, 0.00990183, 352.86972046, 0.9973, 85.6373, 6.3300
161, 8.77344, 20538.00, 105.00, 116.61364867, 39.96925346, 569.55959358, 1.88768315, 0.00928845, 352.86859131, 0.9973, 85.6337, 6.3300
162, 8.82813, 20538.00, 105.00, 116.61364034, 39.96930470, 569.21659246, 1.89227736, 0.00869179, 352.86755371, 0.9973, 85.6302, 6.3300
163, 8.88281, 20538.00, 105.00, 116.61363207, 39.96935562, 568.87558424, 1.89693511, 0.00811385, 352.86657715, 0.9973, 85.6271, 6.3300
164, 8.93750, 20538.00, 105.00, 116.61362368, 39.96940727, 568.52967678, 1.90170872, 0.00754315, 352.86560059, 0.9973, 85.6236, 6.3300
165, 8.99219, 20538.00, 105.00, 116.61361528, 39.96945899, 568.18310974, 1.90650594, 0.00698742, 352.86468506, 0.9973, 85.6195, 6.3300
166, 9.04688, 20538.00, 105.00, 116.61360686, 39.96951081, 567.83589203, 1.91129768, 0.00644705, 352.86386108, 0.9973, 85.6159, 6.3300
167, 9.10156, 20538.00, 105.00, 116.61359855, 39.96956200, 567.49280645, 1.91599560, 0.00592891, 352.86306763, 0.9973, 85.6124, 6.3300
168, 9.15625, 20538.00, 105.00, 116.61359020, 39.96961335, 567.14868206, 1.92065609, 0.00542527, 352.86230469, 0.9973, 85.6088, 6.3300
169, 9.21875, 20538.00, 105.00, 116.61358157, 39.96966648, 566.79262065, 1.92541075, 0.00492125, 352.86157227, 0.9973, 85.6053, 6.3300
170, 9.27344, 20538.00, 105.00, 116.61357310, 39.96971867, 566.44284646, 1.93000877, 0.00444343, 352.86096191, 0.9973, 85.6017, 6.3300
171, 9.32813, 20538.00, 105.00, 116.61356473, 39.96977015, 566.09783306, 1.93446910, 0.00398790, 352.86035156, 0.9973, 85.5982, 6.3300
172, 9.38281, 20538.00, 105.00, 116.61355611, 39.96982325, 565.74207746, 1.93899024, 0.00353564, 352.85980225, 0.9973, 85.5946, 6.3300
173, 9.43750, 20538.00, 105.00, 116.61354768, 39.96987509, 565.39477763, 1.94332826, 0.00311065, 352.85928345, 0.9973, 85.5910, 6.3300
174, 9.49219, 20538.00, 105.00, 116.61353927, 39.96992686, 565.04802048, 1.94758761, 0.00270327, 352.85885620, 0.9973, 85.5875, 6.3300
175, 9.54688, 20538.00, 105.00, 116.61353083, 39.96997887, 564.69978768, 1.95179927, 0.00231060, 352.85845947, 0.9973, 85.5839, 6.3300
176, 9.60156, 20538.00, 105.00, 116.61352233, 39.97003115, 564.34977164, 1.95597100, 0.00193285, 352.85815430, 0.9973, 85.5799, 6.3300
177, 9.66406, 20538.00, 105.00, 116.61351355, 39.97008518, 563.98816162, 1.96022534, 0.00155954, 352.85778809, 0.9973, 85.5763, 6.3300
178, 9.71875, 20538.00, 105.00, 116.61350517, 39.97013680, 563.64284638, 1.96424103, 0.00121974, 352.85757446, 0.9973, 85.5728, 6.3300
179, 9.77344, 20538.00, 105.00, 116.61349681, 39.97018821, 563.29901248, 1.96820176, 0.00089759, 352.85742188, 0.9973, 85.5692, 6.3300
180, 9.82813, 20538.00, 105.00, 116.61348838, 39.97024011, 562.95207515, 1.97216666, 0.00058779, 352.85723877, 0.9973, 85.5657, 6.3300
181, 9.88281, 20538.00, 105.00, 116.61348003, 39.97029153, 562.60850663, 1.97606897, 0.00029711, 352.85717773, 0.9973, 85.5621, 6.3300
182, 9.93750, 20538.00, 105.00, 116.61347181, 39.97034210, 562.27071198, 1.97988963, 0.00002588, 352.85708618, 0.9973, 85.5585, 6.3300
183, 9.99219, 20538.00, 105.00, 116.61346345, 39.97039359, 561.92694350, 1.98376811, -0.00023516, 352.85708618, 0.9973, 85.5550, 6.3300
184, 10.04688, 20538.00, 105.00, 116.61345518, 39.97044446, 561.58749399, 1.98759449, -0.00047819, 352.85708618, 0.9973, 85.5514, 6.3300
185, 10.10156, 20538.00, 105.00, 116.61344691, 39.97049535, 561.24808950, 1.99142325, -0.00070694, 352.85714722, 0.9973, 85.5479, 6.3300
186, 10.15625, 20538.00, 105.00, 116.61343872, 39.97054574, 560.91212780, 1.99521935, -0.00091911, 352.85726929, 0.9973, 85.5443, 6.3300
187, 10.21094, 20538.00, 105.00, 116.61342976, 39.97060088, 560.54476654, 1.99938619, -0.00113599, 352.85739136, 0.9973, 85.5408, 6.3300
188, 10.26563, 20538.00, 105.00, 116.61342139, 39.97065245, 560.20142923, 2.00329804, -0.00132400, 352.85760498, 0.9973, 85.5372, 6.3300
189, 10.32031, 20538.00, 105.00, 116.61341284, 39.97070501, 559.85165061, 2.00730371, -0.00150184, 352.85778809, 0.9973, 85.5337, 6.3300
190, 10.37500, 20538.00, 105.00, 116.61340422, 39.97075810, 559.49855786, 2.01137042, -0.00166711, 352.85806274, 0.9973, 85.5296, 6.3300
191, 10.42969, 20538.00, 105.00, 116.61339578, 39.97081005, 559.15330338, 2.01537204, -0.00181541, 352.85833740, 0.9973, 85.5261, 6.3300
192, 10.49219, 20538.00, 105.00, 116.61338737, 39.97086176, 558.80979627, 2.01937842, -0.00195052, 352.85861206, 0.9973, 85.5225, 6.3300
193, 10.54688, 20538.00, 105.00, 116.61337891, 39.97091382, 558.46427215, 2.02343488, -0.00207360, 352.85894775, 0.9973, 85.5189, 6.3300
194, 10.60156, 20538.00, 105.00, 116.61337049, 39.97096566, 558.12043290, 2.02749705, -0.00218434, 352.85928345, 0.9973, 85.5154, 6.3300
195, 10.65625, 20538.00, 105.00, 116.61336205, 39.97101763, 557.77599941, 2.03159332, -0.00228317, 352.85968018, 0.9973, 85.5118, 6.3300
196, 10.71094, 20538.00, 105.00, 116.61335372, 39.97106887, 557.43661021, 2.03565407, -0.00236948, 352.86007690, 0.9973, 85.5083, 6.3300
197, 10.77344, 20538.00, 105.00, 116.61334412, 39.97112791, 557.04580403, 2.04043794, -0.00044258, 352.86059570, 0.9973, 85.5042, 6.3300
198, 10.82813, 20538.00, 105.00, 116.61333573, 39.97117956, 556.70413234, 2.04489756, 0.00797124, 352.86111450, 0.9973, 85.5007, 6.3300
199, 10.88281, 20538.00, 105.00, 116.61332746, 39.97123046, 556.36759504, 2.04957294, 0.02343338, 352.86172485, 0.9973, 85.4971, 6.3300
200, 10.93750, 20538.00, 105.00, 116.61331897, 39.97128272, 556.02215891, 2.05465651, 0.04677733, 352.86245728, 0.9973, 85.4936, 6.3300
201, 10.99219, 20538.00, 105.00, 116.61331029, 39.97133611, 555.66939569, 2.06005383, 0.07655444, 352.86334229, 0.9973, 85.4895, 6.3300
202, 11.05469, 20538.00, 105.00, 116.61330160, 39.97138960, 555.31630555, 2.06544352, 0.10713150, 352.86428833, 0.9973, 85.4859, 6.3300
203, 11.10938, 20538.00, 105.00, 116.61329274, 39.97144415, 554.95650832, 2.07085466, 0.13783719, 352.86529541, 0.9973, 85.4824, 6.3300
204, 11.17188, 20538.00, 105.00, 116.61328371, 39.97149973, 554.59021461, 2.07625818, 0.16852094, 352.86642456, 0.9973, 85.4783, 6.3300
205, 11.22656, 20538.00, 105.00, 116.61327531, 39.97155145, 554.24967702, 2.08117652, 0.19651909, 352.86752319, 0.9973, 85.4748, 6.3300
206, 11.28125, 20538.00, 105.00, 116.61326690, 39.97160319, 553.90931028, 2.08598685, 0.22399426, 352.86874390, 0.9973, 85.4712, 6.3300
207, 11.33594, 20538.00, 105.00, 116.61325823, 39.97165656, 553.55851657, 2.09083605, 0.25178480, 352.87008667, 0.9973, 85.4677, 6.3300
208, 11.39063, 20538.00, 105.00, 116.61324976, 39.97170873, 553.21597679, 2.09546828, 0.27840823, 352.87145996, 0.9973, 85.4641, 6.3300
209, 11.44531, 20538.00, 105.00, 116.61324128, 39.97176096, 552.87340933, 2.10000348, 0.30452472, 352.87295532, 0.9973, 85.4605, 6.3300
210, 11.50000, 20538.00, 105.00, 116.61323289, 39.97181263, 552.53476629, 2.10439634, 0.32984623, 352.87451172, 0.9973, 85.4570, 6.3300
211, 11.55469, 20538.00, 105.00, 116.61322457, 39.97186394, 552.19884364, 2.10867071, 0.35447767, 352.87615967, 0.9973, 85.4534, 6.3300
212, 11.60938, 20538.00, 105.00, 116.61321625, 39.97191521, 551.86347820, 2.11286163, 0.37858364, 352.87792969, 0.9973, 85.4499, 6.3300
213, 11.66406, 20538.00, 105.00, 116.61320800, 39.97196604, 551.53133243, 2.11694360, 0.40198454, 352.87973022, 0.9973, 85.4463, 6.3300
214, 11.71875, 20538.00, 105.00, 116.61319972, 39.97201709, 551.19812649, 2.12097502, 0.42498711, 352.88165283, 0.9973, 85.4428, 6.3300
215, 11.77344, 20538.00, 105.00, 116.61319144, 39.97206813, 550.86526163, 2.12494540, 0.44749039, 352.88372803, 0.9973, 85.4392, 6.3300
216, 11.82813, 20538.00, 105.00, 116.61318316, 39.97211923, 550.53234885, 2.12886405, 0.46952441, 352.88586426, 0.9973, 85.4357, 6.3300
217, 11.88281, 20538.00, 105.00, 116.61317470, 39.97217141, 550.19273738, 2.13281441, 0.49151617, 352.88818359, 0.9973, 85.4321, 6.3300
218, 11.93750, 20538.00, 105.00, 116.61316629, 39.97222332, 549.85529296, 2.13669562, 0.51287794, 352.89059448, 0.9973, 85.4280, 6.3300
219, 11.99219, 20538.00, 105.00, 116.61315789, 39.97227517, 549.51849459, 2.14053202, 0.53371543, 352.89315796, 0.9973, 85.4245, 6.3300
220, 12.04688, 20538.00, 105.00, 116.61314952, 39.97232686, 549.18313364, 2.14431858, 0.55398524, 352.89578247, 0.9973, 85.4209, 6.3300
221, 12.10938, 20538.00, 105.00, 116.61314079, 39.97238079, 548.83367717, 2.14823270, 0.57459342, 352.89871216, 0.9973, 85.4174, 6.3300
222, 12.16406, 20538.00, 105.00, 116.61313249, 39.97243213, 548.50127946, 2.15192890, 0.59371358, 352.90158081, 0.9973, 85.4138, 6.3300
223, 12.21875, 20538.00, 105.00, 116.61312400, 39.97248462, 548.16181401, 2.15567875, 0.61275530, 352.90466309, 0.9973, 85.4103, 6.3300
224, 12.28125, 20538.00, 105.00, 116.61311535, 39.97253807, 547.81651152, 2.15946865, 0.63161713, 352.90789795, 0.9973, 85.4067, 6.3300
225, 12.33594, 20538.00, 105.00, 116.61310652, 39.97259274, 547.46371706, 2.16331840, 0.65036148, 352.91137695, 0.9973, 85.4027, 6.3300
226, 12.39063, 20538.00, 105.00, 116.61309824, 39.97264400, 547.13332747, 2.16690207, 0.66743594, 352.91473389, 0.9973, 85.3991, 6.3300
227, 12.44531, 20538.00, 105.00, 116.61308998, 39.97269515, 546.80397893, 2.17045426, 0.68398982, 352.91827393, 0.9973, 85.3955, 6.3300
228, 12.50000, 20538.00, 105.00, 116.61308177, 39.97274598, 546.47699703, 2.17396116, 0.69996452, 352.92184448, 0.9973, 85.3920, 6.3300
229, 12.55469, 20538.00, 105.00, 116.61307337, 39.97279807, 546.14231222, 2.17753029, 0.71584380, 352.92562866, 0.9973, 85.3884, 6.3300
230, 12.60938, 20538.00, 105.00, 116.61306429, 39.97285435, 545.78106976, 2.18135929, 0.73244137, 352.92987061, 0.9973, 85.3844, 6.3300
231, 12.66406, 20538.00, 105.00, 116.61305591, 39.97290637, 545.44760353, 2.18487239, 0.74726957, 352.93395996, 0.9973, 85.3808, 6.3300
232, 12.72656, 20538.00, 105.00, 116.61304739, 39.97295923, 545.10903187, 2.18841434, 0.76183856, 352.93820190, 0.9973, 85.3773, 6.3300
233, 12.78125, 20538.00, 105.00, 116.61303912, 39.97301060, 544.78043662, 2.19182825, 0.77550870, 352.94244385, 0.9973, 85.3737, 6.3300
234, 12.83594, 20538.00, 105.00, 116.61303077, 39.97306249, 544.44886050, 2.19524813, 0.78883433, 352.94689941, 0.9973, 85.3702, 6.3300
235, 12.89063, 20538.00, 105.00, 116.61302247, 39.97311414, 544.11918097, 2.19862294, 0.80162001, 352.95138550, 0.9973, 85.3666, 6.3300
236, 12.94531, 20538.00, 105.00, 116.61301409, 39.97316622, 543.78707588, 2.20199537, 0.81402904, 352.95605469, 0.9973, 85.3630, 6.3300
237, 13.00000, 20538.00, 105.00, 116.61300581, 39.97321777, 543.45876585, 2.20530105, 0.82583380, 352.96078491, 0.9973, 85.3595, 6.3300
238, 13.05469, 20538.00, 105.00, 116.61299721, 39.97327135, 543.11786825, 2.20870233, 0.83760774, 352.96585083, 0.9973, 85.3559, 6.3300
239, 13.11719, 20538.00, 105.00, 116.61298876, 39.97332397, 542.78347818, 2.21200776, 0.84867668, 352.97088623, 0.9973, 85.3519, 6.3300
240, 13.19531, 20538.00, 105.00, 116.61297636, 39.97340130, 542.29271562, 2.21679664, 0.86406553, 352.97848511, 0.9973, 85.3468, 6.3300
241, 13.25000, 20538.00, 105.00, 116.61296798, 39.97345362, 541.96110622, 2.21998858, 0.87388951, 352.98376465, 0.9973, 85.3432, 6.3300
242, 13.30469, 20538.00, 105.00, 116.61295958, 39.97350603, 541.62932405, 2.22314572, 0.88325387, 352.98916626, 0.9973, 85.3397, 6.3300
243, 13.35938, 20538.00, 105.00, 116.61295139, 39.97355719, 541.30579646, 2.22618747, 0.89194280, 352.99453735, 0.9973, 85.3361, 6.3300
244, 13.41406, 20538.00, 105.00, 116.61294330, 39.97360782, 540.98594754, 2.22915792, 0.90010428, 352.99990845, 0.9973, 85.3326, 6.3300
245, 13.46875, 20538.00, 105.00, 116.61293517, 39.97365862, 540.66537504, 2.23209763, 0.90785629, 353.00540161, 0.9973, 85.3290, 6.3300
246, 13.52344, 20538.00, 105.00, 116.61292707, 39.97370936, 540.34548808, 2.23499203, 0.91516823, 353.01095581, 0.9973, 85.3255, 6.3300
247, 13.57813, 20538.00, 105.00, 116.61291883, 39.97376091, 540.02084619, 2.23788953, 0.92215860, 353.01669312, 0.9973, 85.3219, 6.3300
248, 13.63281, 20538.00, 105.00, 116.61291063, 39.97381231, 539.69750429, 2.24073362, 0.92869055, 353.02252197, 0.9973, 85.3184, 6.3300
249, 13.68750, 20538.00, 105.00, 116.61290238, 39.97386408, 539.37224083, 2.24355316, 0.93483192, 353.02838135, 0.9973, 85.3148, 6.3300
250, 13.74219, 20538.00, 105.00, 116.61289410, 39.97391599, 539.04633871, 2.24633384, 0.94055873, 353.03439331, 0.9973, 85.3112, 6.3300
251, 13.79688, 20538.00, 105.00, 116.61288604, 39.97396663, 538.72880638, 2.24900055, 0.94572788, 353.04028320, 0.9973, 85.3077, 6.3300
252, 13.85156, 20538.00, 105.00, 116.61287766, 39.97401930, 538.39891394, 2.25172591, 0.95067084, 353.04647827, 0.9973, 85.3036, 6.3300
253, 13.90625, 20538.00, 105.00, 116.61286941, 39.97407119, 538.07423578, 2.25436211, 0.95511800, 353.05267334, 0.9973, 85.3001, 6.3300
254, 13.96094, 20538.00, 105.00, 116.61286114, 39.97412321, 537.74906962, 2.25695634, 0.95915538, 353.05889893, 0.9973, 85.2965, 6.3300
255, 14.01563, 20538.00, 105.00, 116.61285307, 39.97417400, 537.43192243, 2.25944138, 0.96269697, 353.06500244, 0.9973, 85.2930, 6.3300
256, 14.07813, 20538.00, 105.00, 116.61284393, 39.97423158, 537.07274909, 2.26220131, 0.96623993, 353.07202148, 0.9973, 85.2894, 6.3300
257, 14.13281, 20538.00, 105.00, 116.61283576, 39.97428308, 536.75184256, 2.26461840, 0.96899164, 353.07830811, 0.9973, 85.2859, 6.3300
258, 14.18750, 20538.00, 105.00, 116.61282764, 39.97433431, 536.43298171, 2.26697350, 0.97134089, 353.08459473, 0.9973, 85.2823, 6.3300
259, 14.24219, 20538.00, 105.00, 116.61281958, 39.97438524, 536.11627530, 2.26926565, 0.97330147, 353.09091187, 0.9973, 85.2787, 6.3300
260, 14.29688, 20538.00, 105.00, 116.61281114, 39.97443853, 535.78520449, 2.27161312, 0.97495192, 353.09753418, 0.9973, 85.2747, 6.3300
261, 14.35156, 20538.00, 105.00, 116.61280307, 39.97448955, 535.46859266, 2.27380991, 0.97615683, 353.10388184, 0.9973, 85.2711, 6.3300
262, 14.40625, 20538.00, 105.00, 116.61279507, 39.97454017, 535.15474689, 2.27594113, 0.97699726, 353.11016846, 0.9973, 85.2676, 6.3300
263, 14.46094, 20538.00, 105.00, 116.61278698, 39.97459140, 534.83748475, 2.27804852, 0.97749096, 353.11660767, 0.9973, 85.2640, 6.3300
264, 14.51563, 20538.00, 105.00, 116.61277880, 39.97464321, 534.51687806, 2.28012991, 0.97762966, 353.12307739, 0.9973, 85.2605, 6.3300
265, 14.57031, 20538.00, 105.00, 116.61277046, 39.97469609, 534.18996157, 2.28220248, 0.97740686, 353.12966919, 0.9973, 85.2569, 6.3300
266, 14.62500, 20538.00, 105.00, 116.61276249, 39.97474671, 533.87734476, 2.28413701, 0.97685349, 353.13598633, 0.9973, 85.2534, 6.3300
267, 14.68750, 20538.00, 105.00, 116.61275423, 39.97479913, 533.55389725, 2.28609324, 0.97593546, 353.14254761, 0.9973, 85.2498, 6.3300
268, 14.74219, 20538.00, 105.00, 116.61274607, 39.97485098, 533.23427699, 2.28798485, 0.97469229, 353.14898682, 0.9973, 85.2462, 6.3300
269, 14.79688, 20538.00, 105.00, 116.61273723, 39.97490716, 532.88827508, 2.28999138, 0.97297168, 353.15600586, 0.9973, 85.2422, 6.3300
270, 14.85156, 20538.00, 105.00, 116.61272906, 39.97495921, 532.56805454, 2.29181170, 0.97104216, 353.16247559, 0.9973, 85.2386, 6.3300
271, 14.90625, 20538.00, 105.00, 116.61272102, 39.97501039, 532.25343475, 2.29356861, 0.96883708, 353.16879272, 0.9973, 85.2351, 6.3300
272, 14.96094, 20538.00, 105.00, 116.61271294, 39.97506189, 531.93710768, 2.29530478, 0.96631473, 353.17510986, 0.9973, 85.2315, 6.3300
273, 15.01563, 20538.00, 105.00, 116.61270493, 39.97511298, 531.62351487, 2.29699469, 0.96351755, 353.18136597, 0.9973, 85.2280, 6.3300
274, 15.07813, 20538.00, 105.00, 116.61269677, 39.97516506, 531.30420753, 2.29868412, 0.96037459, 353.18774414, 0.9973, 85.2244, 6.3300
275, 15.13281, 20538.00, 105.00, 116.61268840, 39.97521849, 530.97680712, 2.30038452, 0.95684499, 353.19415283, 0.9973, 85.2209, 6.3300
276, 15.18750, 20538.00, 105.00, 116.61267994, 39.97527254, 530.64592637, 2.30206728, 0.95297152, 353.20065308, 0.9973, 85.2168, 6.3300
277, 15.24219, 20538.00, 105.00, 116.61267191, 39.97532393, 530.33157382, 2.30363131, 0.94901633, 353.20681763, 0.9973, 85.2132, 6.3300
278, 15.29688, 20538.00, 105.00, 116.61266385, 39.97537552, 530.01627225, 2.30516553, 0.94478178, 353.21292114, 0.9973, 85.2097, 6.3300
279, 15.35156, 20538.00, 105.00, 116.61265582, 39.97542696, 529.70208672, 2.30665779, 0.94030249, 353.21893311, 0.9973, 85.2061, 6.3300
280, 15.40625, 20538.00, 105.00, 116.61264776, 39.97547862, 529.38682584, 2.30811739, 0.93555766, 353.22494507, 0.9973, 85.2026, 6.3300
281, 15.46094, 20538.00, 105.00, 116.61263987, 39.97552925, 529.07806779, 2.30950689, 0.93067211, 353.23077393, 0.9973, 85.1990, 6.3300
282, 15.52344, 20538.00, 105.00, 116.61263162, 39.97558221, 528.75534018, 2.31091666, 0.92531735, 353.23681641, 0.9973, 85.1955, 6.3300
283, 15.57813, 20538.00, 105.00, 116.61262320, 39.97563627, 528.42610161, 2.31230855, 0.91960317, 353.24288940, 0.9973, 85.1919, 6.3300
284, 15.63281, 20538.00, 105.00, 116.61261529, 39.97568713, 528.11659794, 2.31357050, 0.91400778, 353.24859619, 0.9973, 85.1884, 6.3300
285, 15.68750, 20538.00, 105.00, 116.61260725, 39.97573883, 527.80221840, 2.31480646, 0.90810508, 353.25424194, 0.9973, 85.1848, 6.3300
286, 15.74219, 20538.00, 105.00, 116.61259927, 39.97579018, 527.49012310, 2.31598496, 0.90203720, 353.25982666, 0.9973, 85.1812, 6.3300
287, 15.79688, 20538.00, 105.00, 116.61259125, 39.97584188, 527.17613706, 2.31712222, 0.89572728, 353.26535034, 0.9973, 85.1777, 6.3300
288, 15.85156, 20538.00, 105.00, 116.61258331, 39.97589307, 526.86547619, 2.31819654, 0.88928801, 353.27081299, 0.9973, 85.1741, 6.3300
289, 15.90625, 20538.00, 105.00, 116.61257530, 39.97594472, 526.55216698, 2.31923008, 0.88260412, 353.27615356, 0.9973, 85.1706, 6.3300
290, 15.96094, 20538.00, 105.00, 116.61256718, 39.97599716, 526.23426191, 2.32022476, 0.87563348, 353.28152466, 0.9973, 85.1670, 6.3300
291, 16.01563, 20538.00, 105.00, 116.61255907, 39.97604955, 525.91686377, 2.32116389, 0.86848903, 353.28683472, 0.9973, 85.1630, 6.3300
292, 16.07031, 20538.00, 105.00, 116.61255110, 39.97610105, 525.60505688, 2.32203317, 0.86130071, 353.29196167, 0.9973, 85.1594, 6.3300
293, 16.12500, 20538.00, 105.00, 116.61254322, 39.97615199, 525.29683669, 2.32283974, 0.85403538, 353.29690552, 0.9973, 85.1559, 6.3300
294, 16.18750, 20538.00, 105.00, 116.61253535, 39.97620297, 524.98850894, 2.32359362, 0.84661186, 353.30184937, 0.9973, 85.1523, 6.3300
295, 16.24219, 20538.00, 105.00, 116.61252700, 39.97625706, 524.66153603, 2.32433534, 0.83857799, 353.30691528, 0.9973, 85.1488, 6.3300
296, 16.29688, 20538.00, 105.00, 116.61251895, 39.97630923, 524.34637898, 2.32499433, 0.83068597, 353.31176758, 0.9973, 85.1452, 6.3300
297, 16.35156, 20538.00, 105.00, 116.61251093, 39.97636127, 524.03215578, 2.32559824, 0.82267410, 353.31649780, 0.9973, 85.1416, 6.3300
298, 16.40625, 20538.00, 105.00, 116.61250302, 39.97641257, 523.72250816, 2.32614064, 0.81464827, 353.32107544, 0.9973, 85.1381, 6.3300
299, 16.46094, 20538.00, 105.00, 116.61249520, 39.97646333, 523.41630008, 2.32662487, 0.80659109, 353.32553101, 0.9973, 85.1345, 6.3300
300, 16.51563, 20538.00, 105.00, 116.61248728, 39.97651484, 523.10572008, 2.32705951, 0.79829806, 353.32992554, 0.9973, 85.1310, 6.3300
301, 16.57031, 20538.00, 105.00, 116.61247954, 39.97656513, 522.80265773, 2.32742476, 0.79009622, 353.33410645, 0.9973, 85.1274, 6.3300
302, 16.62500, 20538.00, 105.00, 116.61247156, 39.97661705, 522.48982620, 2.32773495, 0.78152293, 353.33837891, 0.9973, 85.1239, 6.3300
303, 16.67969, 20538.00, 105.00, 116.61246363, 39.97666871, 522.17873323, 2.32796931, 0.77289176, 353.34252930, 0.9973, 85.1203, 6.3300
304, 16.73438, 20538.00, 105.00, 116.61245584, 39.97671947, 521.87323549, 2.32812381, 0.76432127, 353.34649658, 0.9973, 85.1168, 6.3300
305, 16.78906, 20538.00, 105.00, 116.61244798, 39.97677067, 521.56515872, 2.32819843, 0.75559062, 353.35040283, 0.9973, 85.1132, 6.3300
306, 16.84375, 20538.00, 105.00, 116.61244016, 39.97682166, 521.25845740, 2.32818747, 0.74681222, 353.35424805, 0.9973, 85.1096, 6.3300
307, 16.89844, 20538.00, 105.00, 116.61243242, 39.97687219, 520.95460672, 2.32809162, 0.73803711, 353.35791016, 0.9973, 85.1061, 6.3300
308, 16.95313, 20538.00, 105.00, 116.61242465, 39.97692296, 520.64944855, 2.32790971, 0.72915214, 353.36154175, 0.9973, 85.1025, 6.3300
309, 17.00781, 20538.00, 105.00, 116.61241634, 39.97697721, 520.32350242, 2.32762241, 0.71958214, 353.36529541, 0.9973, 85.1000, 6.3300
310, 17.07031, 20538.00, 105.00, 116.61240789, 39.97703246, 519.99167913, 2.32723665, 0.70976502, 353.36904907, 0.9973, 85.1000, 6.3300
311, 17.12500, 20538.00, 105.00, 116.61239957, 39.97708693, 519.66454151, 2.32677126, 0.70002019, 353.37258911, 0.9973, 85.1000, 6.3300
312, 17.17969, 20538.00, 105.00, 116.61239153, 39.97713953, 519.34883166, 2.32625294, 0.69055611, 353.37594604, 0.9973, 85.1000, 6.3300
313, 17.23438, 20538.00, 105.00, 116.61238376, 39.97719046, 519.04313859, 2.32569528, 0.68134236, 353.37915039, 0.9973, 85.1000, 6.3300
314, 17.28906, 20538.00, 105.00, 116.61237583, 39.97724242, 518.73140085, 2.32508230, 0.67190123, 353.38226318, 0.9973, 85.1000, 6.3300
315, 17.34375, 20538.00, 105.00, 116.61236780, 39.97729504, 518.41572934, 2.32442617, 0.66229475, 353.38531494, 0.9973, 85.1000, 6.3300
316, 17.39844, 20538.00, 105.00, 116.61235998, 39.97734635, 518.10792448, 2.32376146, 0.65289009, 353.38827515, 0.9973, 85.1000, 6.3300
317, 17.45313, 20538.00, 105.00, 116.61235213, 39.97739789, 517.79885871, 2.32307506, 0.64341480, 353.39114380, 0.9973, 85.1000, 6.3300
318, 17.50781, 20538.00, 105.00, 116.61234424, 39.97744969, 517.48826868, 2.32237434, 0.63386017, 353.39389038, 0.9973, 85.1000, 6.3300
319, 17.57031, 20538.00, 105.00, 116.61233646, 39.97750080, 517.18187761, 2.32167625, 0.62440896, 353.39657593, 0.9973, 85.1000, 6.3300
320, 17.62500, 20538.00, 105.00, 116.61232866, 39.97755210, 516.87429393, 2.32097387, 0.61489904, 353.39916992, 0.9973, 85.1000, 6.3300
321, 17.67969, 20538.00, 105.00, 116.61232075, 39.97760413, 516.56245920, 2.32026196, 0.60523587, 353.40170288, 0.9973, 85.1000, 6.3300
322, 17.73438, 20538.00, 105.00, 116.61231259, 39.97765782, 516.24063320, 2.31952763, 0.59524566, 353.40423584, 0.9973, 85.1000, 6.3300
323, 17.78906, 20538.00, 105.00, 116.61230490, 39.97770842, 515.93736850, 2.31883430, 0.58582193, 353.40655518, 0.9973, 85.1000, 6.3300
324, 17.84375, 20538.00, 105.00, 116.61229711, 39.97775977, 515.62964995, 2.31812382, 0.57624924, 353.40884399, 0.9973, 85.1000, 6.3300
325, 17.89844, 20538.00, 105.00, 116.61228937, 39.97781076, 515.32410894, 2.31740308, 0.56673771, 353.41101074, 0.9973, 85.1000, 6.3300
326, 17.95313, 20538.00, 105.00, 116.61228159, 39.97786206, 515.01665630, 2.31665730, 0.55716521, 353.41314697, 0.9973, 85.1000, 6.3300
327, 18.00781, 20538.00, 105.00, 116.61227385, 39.97791311, 514.71080770, 2.31588364, 0.54764074, 353.41519165, 0.9973, 85.1000, 6.3300
328, 18.06250, 20538.00, 105.00, 116.61226603, 39.97796474, 514.40139156, 2.31506181, 0.53800654, 353.41717529, 0.9973, 85.1000, 6.3300
329, 18.11719, 20538.00, 105.00, 116.61225817, 39.97801659, 514.09067207, 2.31418705, 0.52833885, 353.41909790, 0.9973, 85.1000, 6.3300
330, 18.17188, 20538.00, 105.00, 116.61225002, 39.97807046, 513.76792254, 2.31321931, 0.51830310, 353.42102051, 0.9973, 85.1000, 6.3300
331, 18.22656, 20538.00, 105.00, 116.61224231, 39.97812139, 513.46272225, 2.31224394, 0.50882214, 353.42276001, 0.9973, 85.1000, 6.3300
332, 18.28125, 20538.00, 105.00, 116.61223449, 39.97817309, 513.15285184, 2.31119061, 0.49921054, 353.42449951, 0.9973, 85.1000, 6.3300
333, 18.36719, 20538.00, 105.00, 116.61222664, 39.97822498, 512.84189818, 2.31007099, 0.48957840, 353.42620850, 0.9973, 85.1000, 6.3300
334, 18.43750, 20538.00, 105.00, 116.61221242, 39.97831908, 512.27790055, 2.30788493, 0.47213727, 353.42904663, 0.9973, 85.1000, 6.3300
335, 18.50000, 20538.00, 105.00, 116.61220196, 39.97838834, 511.86271022, 2.30617547, 0.45934236, 353.43099976, 0.9973, 85.1000, 6.3300
336, 18.55469, 20538.00, 105.00, 116.61219353, 39.97844421, 511.52774620, 2.30475879, 0.44905555, 353.43252563, 0.9973, 85.1000, 6.3300
337, 18.60938, 20538.00, 105.00, 116.61218568, 39.97849623, 511.21587893, 2.30342889, 0.43950841, 353.43383789, 0.9973, 85.1000, 6.3300
338, 18.66406, 20538.00, 105.00, 116.61217798, 39.97854730, 510.90961051, 2.30212331, 0.43015981, 353.43511963, 0.9973, 85.1000, 6.3300
339, 18.71875, 20538.00, 105.00, 116.61217024, 39.97859858, 510.60198107, 2.30082440, 0.42079908, 353.43634033, 0.9973, 85.1000, 6.3300
340, 18.77344, 20538.00, 105.00, 116.61216239, 39.97865068, 510.28945871, 2.29952431, 0.41132340, 353.43750000, 0.9973, 85.1000, 6.3300
341, 18.82813, 20538.00, 105.00, 116.61215474, 39.97870145, 509.98484416, 2.29828405, 0.40211934, 353.43862915, 0.9973, 85.1000, 6.3300
342, 18.88281, 20538.00, 105.00, 116.61214703, 39.97875266, 509.67750260, 2.29706573, 0.39286593, 353.43969727, 0.9973, 85.1000, 6.3300
343, 18.93750, 20538.00, 105.00, 116.61213911, 39.97880521, 509.36202918, 2.29585218, 0.38340625, 353.44076538, 0.9973, 85.1000, 6.3300
344, 18.99219, 20538.00, 105.00, 116.61213147, 39.97885601, 509.05701408, 2.29471922, 0.37429559, 353.44171143, 0.9973, 85.1000, 6.3300
345, 19.05469, 20538.00, 105.00, 116.61212376, 39.97890720, 508.74960429, 2.29361916, 0.36515158, 353.44265747, 0.9973, 85.1000, 6.3300
346, 19.10938, 20538.00, 105.00, 116.61211564, 39.97896120, 508.42521039, 2.29250455, 0.35554725, 353.44360352, 0.9973, 85.1000, 6.3300
347, 19.16406, 20538.00, 105.00, 116.61210796, 39.97901223, 508.11856507, 2.29149175, 0.34650904, 353.44442749, 0.9973, 85.1000, 6.3300
348, 19.21875, 20538.00, 105.00, 116.61210022, 39.97906375, 507.80891551, 2.29050255, 0.33742616, 353.44525146, 0.9973, 85.1000, 6.3300
349, 19.27344, 20538.00, 105.00, 116.61209210, 39.97911777, 507.48416133, 2.28949285, 0.32795063, 353.44604492, 0.9973, 85.1000, 6.3300
350, 19.32813, 20538.00, 105.00, 116.61208443, 39.97916883, 507.17713080, 2.28855300, 0.31903914, 353.44677734, 0.9973, 85.1000, 6.3300
351, 19.38281, 20538.00, 105.00, 116.61207684, 39.97921930, 506.87354850, 2.28762627, 0.31027463, 353.44744873, 0.9973, 85.1000, 6.3300
352, 19.43750, 20538.00, 105.00, 116.61206898, 39.97927166, 506.55855730, 2.28665543, 0.30123448, 353.44812012, 0.9973, 85.1000, 6.3300
353, 19.49219, 20538.00, 105.00, 116.61206118, 39.97932360, 506.24596382, 2.28567147, 0.29231641, 353.44876099, 0.9973, 85.1000, 6.3300
354, 19.54688, 20538.00, 105.00, 116.61205351, 39.97937468, 505.93843367, 2.28467178, 0.28359821, 353.44934082, 0.9973, 85.1000, 6.3300
355, 19.60156, 20538.00, 105.00, 116.61204581, 39.97942600, 505.62945604, 2.28362966, 0.27489898, 353.44985962, 0.9973, 85.1000, 6.3300
356, 19.65625, 20538.00, 105.00, 116.61203808, 39.97947755, 505.31894978, 2.28253746, 0.26621884, 353.45040894, 0.9973, 85.1000, 6.3300
357, 19.71094, 20538.00, 105.00, 116.61203036, 39.97952899, 505.00904316, 2.28140306, 0.25762263, 353.45089722, 0.9973, 85.1000, 6.3300
358, 19.77344, 20538.00, 105.00, 116.61202261, 39.97958064, 504.69777811, 2.28021979, 0.24906588, 353.45135498, 0.9973, 85.1000, 6.3300
359, 19.82813, 20538.00, 105.00, 116.61201471, 39.97963335, 504.38002419, 2.27897310, 0.24041875, 353.45181274, 0.9973, 85.1000, 6.3300
360, 19.88281, 20538.00, 105.00, 116.61200701, 39.97968470, 504.07038058, 2.27772999, 0.23209660, 353.45217896, 0.9973, 85.1000, 6.3300
361, 19.93750, 20538.00, 105.00, 116.61199910, 39.97973746, 503.75212989, 2.27643609, 0.22370173, 353.45254517, 0.9973, 85.1000, 6.3300
362, 20.00000, 20538.00, 105.00, 116.61199090, 39.97979218, 503.42196707, 2.27508855, 0.21555217, 353.45291138, 0.9973, 85.1000, 6.3300
363, 20.05469, 20538.00, 105.00, 116.61198292, 39.97984549, 503.10016379, 2.27382231, 0.20698880, 353.45321655, 0.9973, 85.1000, 6.3300
364, 20.10938, 20538.00, 105.00, 116.61197522, 39.97989689, 502.78980626, 2.27263808, 0.19856724, 353.45352173, 0.9973, 85.1000, 6.3300
365, 20.16406, 20538.00, 105.00, 116.61196731, 39.97994972, 502.47068089, 2.27146244, 0.18990505, 353.45379639, 0.9973, 85.1000, 6.3300
366, 20.22656, 20538.00, 105.00, 116.61195949, 39.98000191, 502.15530991, 2.27034807, 0.18136206, 353.45397949, 0.9973, 85.1000, 6.3300
367, 20.28125, 20538.00, 105.00, 116.61195131, 39.98005656, 501.82495575, 2.26923728, 0.17244430, 353.45419312, 0.9973, 85.1000, 6.3300
368, 20.33594, 20538.00, 105.00, 116.61194354, 39.98010845, 501.51114983, 2.26823926, 0.16400376, 353.45437622, 0.9431, 85.1000, 6.3300
369, 20.39844, 20538.00, 105.00, 116.61193513, 39.98016464, 501.17126970, 2.26722431, 0.15489763, 353.45452881, 0.9431, 85.1000, 6.3300
370, 20.45313, 20538.00, 105.00, 116.61192722, 39.98021750, 500.85133820, 2.26633263, 0.14636545, 353.45465088, 0.9431, 85.1000, 6.3300
371, 20.50781, 20538.00, 105.00, 116.61191954, 39.98026884, 500.54053180, 2.26552486, 0.13811463, 353.45477295, 0.9431, 85.1000, 6.3300
372, 20.56250, 20538.00, 105.00, 116.61191174, 39.98032099, 500.22465872, 2.26476455, 0.12976724, 353.45480347, 0.9431, 85.1000, 6.3300
373, 20.61719, 20538.00, 105.00, 116.61190375, 39.98037437, 499.90123816, 2.26404548, 0.12126543, 353.45486450, 0.9431, 85.1000, 6.3300
374, 20.67188, 20538.00, 105.00, 116.61189611, 39.98042543, 499.59175272, 2.26340866, 0.11317138, 353.45489502, 0.9431, 85.1000, 6.3300
375, 20.72656, 20538.00, 105.00, 116.61188836, 39.98047723, 499.27771546, 2.26280475, 0.10500149, 353.45486450, 0.9431, 85.1000, 6.3300
376, 20.78906, 20538.00, 105.00, 116.61188036, 39.98053074, 498.95316214, 2.26221395, 0.09660702, 353.45483398, 0.9431, 85.1000, 6.3300
377, 20.84375, 20538.00, 105.00, 116.61187260, 39.98058264, 498.63826689, 2.26166153, 0.08850894, 353.45480347, 0.9431, 85.1000, 6.3300
378, 20.89844, 20538.00, 105.00, 116.61186492, 39.98063399, 498.32659314, 2.26112294, 0.08053949, 353.45471191, 0.9431, 85.1000, 6.3300
379, 20.95313, 20538.00, 105.00, 116.61185714, 39.98068603, 498.01057772, 2.26057339, 0.07251000, 353.45458984, 0.9431, 85.1000, 6.3300
380, 21.00781, 20538.00, 105.00, 116.61184954, 39.98073688, 497.70177537, 2.26002336, 0.06471201, 353.45446777, 0.9431, 85.1000, 6.3300
381, 21.06250, 20538.00, 105.00, 116.61184178, 39.98078881, 497.38624741, 2.25944018, 0.05679359, 353.45434570, 0.9431, 85.1000, 6.3300
382, 21.11719, 20538.00, 105.00, 116.61183422, 39.98083939, 497.07885437, 2.25884581, 0.04913155, 353.45416260, 0.9431, 85.1000, 6.3300
383, 21.17188, 20538.00, 105.00, 116.61182616, 39.98089332, 496.75096164, 2.25818133, 0.04101346, 353.45397949, 0.9431, 85.1000, 6.3300
384, 21.22656, 20538.00, 105.00, 116.61181844, 39.98094491, 496.43722926, 2.25751781, 0.03329947, 353.45370483, 0.9431, 85.1000, 6.3300
385, 21.28125, 20538.00, 105.00, 116.61181090, 39.98099537, 496.13024173, 2.25684762, 0.02580755, 353.45346069, 0.9431, 85.1000, 6.3300
386, 21.34375, 20538.00, 105.00, 116.61180313, 39.98104737, 495.81379038, 2.25614381, 0.01813973, 353.45318604, 0.9431, 85.1000, 6.3300
387, 21.39844, 20538.00, 105.00, 116.61179514, 39.98110084, 495.48828699, 2.25541902, 0.01031204, 353.45288086, 0.9431, 85.1000, 6.3300
388, 21.45313, 20538.00, 105.00, 116.61178733, 39.98115312, 495.16990666, 2.25472379, 0.00271884, 353.45254517, 0.9431, 85.1000, 6.3300
389, 21.50781, 20538.00, 105.00, 116.61177922, 39.98120737, 494.83944802, 2.25402832, -0.00509936, 353.45217896, 0.9431, 85.1000, 6.3300
390, 21.56250, 20538.00, 105.00, 116.61177150, 39.98125904, 494.52457729, 2.25339913, -0.01248663, 353.45178223, 0.9431, 85.1000, 6.3300
391, 21.61719, 20538.00, 105.00, 116.61176392, 39.98130972, 494.21563940, 2.25282145, -0.01967190, 353.45135498, 0.9431, 85.1000, 6.3300
392, 21.67188, 20538.00, 105.00, 116.61175630, 39.98136074, 493.90452936, 2.25228453, -0.02684635, 353.45092773, 0.9431, 85.1000, 6.3300
393, 21.72656, 20538.00, 105.00, 116.61174858, 39.98141238, 493.58952961, 2.25179124, -0.03404709, 353.45046997, 0.9431, 85.1000, 6.3300
394, 21.78125, 20538.00, 105.00, 116.61174094, 39.98146353, 493.27740689, 2.25135493, -0.04111538, 353.44998169, 0.9431, 85.1000, 6.3300
395, 21.84375, 20538.00, 105.00, 116.61173314, 39.98151568, 492.95911141, 2.25096607, -0.04825645, 353.44943237, 0.9431, 85.1000, 6.3300
396, 21.89844, 20538.00, 105.00, 116.61172528, 39.98156832, 492.63770318, 2.25063086, -0.05539754, 353.44888306, 0.9431, 85.1000, 6.3300
397, 21.95313, 20538.00, 105.00, 116.61171762, 39.98161953, 492.32487672, 2.25035906, -0.06227728, 353.44830322, 0.9431, 85.1000, 6.3300
398, 22.00781, 20538.00, 105.00, 116.61170992, 39.98167106, 492.01007827, 2.25014019, -0.06913142, 353.44769287, 0.9431, 85.1000, 6.3300
399, 22.06250, 20538.00, 105.00, 116.61170215, 39.98172305, 491.69233138, 2.24997187, -0.07597800, 353.44708252, 0.9431, 85.1000, 6.3300
400, 22.11719, 20538.00, 105.00, 116.61169456, 39.98177386, 491.38172420, 2.24985766, -0.08259737, 353.44641113, 0.9431, 85.1000, 6.3300
401, 22.17188, 20538.00, 105.00, 116.61168653, 39.98182756, 491.05331068, 2.24978971, -0.08951887, 353.44567871, 0.9431, 85.1000, 6.3300
402, 22.22656, 20538.00, 105.00, 116.61167892, 39.98187845, 490.74199617, 2.24977112, -0.09600547, 353.44497681, 0.9431, 85.1000, 6.3300
403, 22.28906, 20538.00, 105.00, 116.61167138, 39.98192887, 490.43349215, 2.24979234, -0.10235842, 353.44424438, 0.9431, 85.1000, 6.3300
404, 22.34375, 20538.00, 105.00, 116.61166120, 39.98199701, 490.01644483, 2.24987411, -0.11083499, 353.44320679, 0.9431, 85.1000, 6.3300
405, 22.40625, 20538.00, 105.00, 116.61165347, 39.98204867, 489.70015469, 2.24996495, -0.11717124, 353.44238281, 0.9160, 85.1000, 6.3300
406, 22.46094, 20538.00, 105.00, 116.61164546, 39.98210224, 489.37206614, 2.25007558, -0.12365534, 353.44149780, 0.9160, 85.1000, 6.3300
407, 22.51563, 20538.00, 105.00, 116.61163769, 39.98215418, 489.05391450, 2.25019073, -0.12985936, 353.44061279, 0.9160, 85.1000, 6.3300
408, 22.57031, 20538.00, 105.00, 116.61162963, 39.98220808, 488.72364973, 2.25030899, -0.13621041, 353.43966675, 0.9160, 85.1000, 6.3300
409, 22.62500, 20538.00, 105.00, 116.61162203, 39.98225891, 488.41213551, 2.25041389, -0.14211424, 353.43872070, 0.9160, 85.1000, 6.3300
410, 22.67969, 20538.00, 105.00, 116.61161447, 39.98230947, 488.10224732, 2.25050688, -0.14790566, 353.43780518, 0.9160, 85.1000, 6.3300
411, 22.73438, 20538.00, 105.00, 116.61160659, 39.98236213, 487.77937886, 2.25058961, -0.15385129, 353.43679810, 0.9160, 85.1000, 6.3300
412, 22.79688, 20538.00, 105.00, 116.61159878, 39.98241430, 487.45941968, 2.25065732, -0.15965025, 353.43572998, 0.9160, 85.1000, 6.3300
413, 22.85156, 20538.00, 105.00, 116.61159109, 39.98246573, 487.14394815, 2.25071287, -0.16527812, 353.43469238, 0.9160, 85.1000, 6.3300
414, 22.90625, 20538.00, 105.00, 116.61158344, 39.98251684, 486.83041785, 2.25076246, -0.17078184, 353.43362427, 0.9160, 85.1000, 6.3300
415, 22.96094, 20538.00, 105.00, 116.61157562, 39.98256909, 486.50979339, 2.25081563, -0.17631397, 353.43246460, 0.9160, 85.1000, 6.3300
416, 23.01563, 20538.00, 105.00, 116.61156752, 39.98262323, 486.17756132, 2.25088048, -0.18194415, 353.43130493, 0.9160, 85.1000, 6.3300
417, 23.07813, 20538.00, 105.00, 116.61155935, 39.98267779, 485.84261964, 2.25096393, -0.18751307, 353.43005371, 0.9160, 85.1000, 6.3300
418, 23.13281, 20538.00, 105.00, 116.61155168, 39.98272899, 485.52825790, 2.25106335, -0.19263686, 353.42889404, 0.9160, 85.1000, 6.3300
419, 23.18750, 20538.00, 105.00, 116.61154392, 39.98278084, 485.20986936, 2.25118876, -0.19772524, 353.42761230, 0.9160, 85.1000, 6.3300
420, 23.24219, 20538.00, 105.00, 116.61153629, 39.98283179, 484.89697400, 2.25134015, -0.20262200, 353.42639160, 0.9160, 85.1000, 6.3300
421, 23.29688, 20538.00, 105.00, 116.61152867, 39.98288260, 484.58479759, 2.25152040, -0.20740142, 353.42510986, 0.9160, 85.1000, 6.3300
422, 23.35156, 20538.00, 105.00, 116.61152094, 39.98293423, 484.26759377, 2.25173473, -0.21214810, 353.42376709, 0.9160, 85.1000, 6.3300
423, 23.40625, 20538.00, 105.00, 116.61151331, 39.98298516, 483.95466268, 2.25197911, -0.21671717, 353.42245483, 0.9160, 85.1000, 6.3300
424, 23.46094, 20538.00, 105.00, 116.61150552, 39.98303711, 483.63539800, 2.25226021, -0.22125331, 353.42108154, 0.9160, 85.1000, 6.3300
425, 23.51563, 20538.00, 105.00, 116.61149774, 39.98308901, 483.31632437, 2.25257492, -0.22565471, 353.41967773, 0.9160, 85.1000, 6.3300
426, 23.57031, 20538.00, 105.00, 116.61148978, 39.98314213, 482.98975894, 2.25292969, -0.23000856, 353.41821289, 0.9160, 85.1000, 6.3300
427, 23.63281, 20538.00, 105.00, 116.61148194, 39.98319440, 482.66837594, 2.25330949, -0.23412031, 353.41674805, 0.9160, 85.1000, 6.3300
428, 23.68750, 20538.00, 105.00, 116.61147420, 39.98324607, 482.35066432, 2.25371242, -0.23797299, 353.41528320, 0.9160, 85.1000, 6.3300
429, 23.74219, 20538.00, 105.00, 116.61146646, 39.98329765, 482.03344219, 2.25413728, -0.24137853, 353.41381836, 0.9160, 85.1000, 6.3300
430, 23.79688, 20538.00, 105.00, 116.61145859, 39.98335010, 481.71079268, 2.25463629, -0.24405935, 353.41223145, 0.9160, 85.1000, 6.3300
431, 23.85156, 20538.00, 105.00, 116.61145073, 39.98340248, 481.38854512, 2.25520444, -0.24805893, 353.41067505, 0.9160, 85.1000, 6.3300
432, 23.90625, 20538.00, 105.00, 116.61144306, 39.98345364, 481.07381113, 2.25578475, -0.25214019, 353.40911865, 0.9160, 85.1000, 6.3300
433, 23.96875, 20538.00, 105.00, 116.61143509, 39.98350669, 480.74733957, 2.25640464, -0.25636643, 353.40747070, 0.9160, 85.1000, 6.3300
434, 24.02344, 20538.00, 105.00, 116.61142703, 39.98356043, 480.41662097, 2.25704741, -0.26061395, 353.40579224, 0.9160, 85.1000, 6.3300
435, 24.07813, 20538.00, 105.00, 116.61141929, 39.98361197, 480.09940075, 2.25767374, -0.26464382, 353.40417480, 0.9160, 85.1000, 6.3300
436, 24.13281, 20538.00, 105.00, 116.61141163, 39.98366299, 479.78537819, 2.25829935, -0.26858288, 353.40252686, 0.9160, 85.1000, 6.3300
437, 24.18750, 20538.00, 105.00, 116.61140387, 39.98371463, 479.46753061, 2.25893426, -0.27251825, 353.40081787, 0.9160, 85.1000, 6.3300
438, 24.24219, 20538.00, 105.00, 116.61139620, 39.98376570, 479.15316702, 2.25956178, -0.27635434, 353.39913940, 0.9160, 85.1000, 6.3300
439, 24.29688, 20538.00, 105.00, 116.61138840, 39.98381756, 478.83387973, 2.26019526, -0.28018832, 353.39739990, 0.9160, 85.1000, 6.3300
440, 24.35156, 20538.00, 105.00, 116.61138069, 39.98386885, 478.51814954, 2.26081705, -0.28391942, 353.39569092, 0.9160, 85.1000, 6.3300
441, 24.40625, 20538.00, 105.00, 116.61137282, 39.98392123, 478.19567808, 2.26144743, -0.28766537, 353.39389038, 0.8754, 85.1000, 6.3300
442, 24.46875, 20538.00, 105.00, 116.61136456, 39.98397616, 477.85746498, 2.26210403, -0.29151863, 353.39196777, 0.8754, 85.1000, 6.3300
443, 24.52344, 20538.00, 105.00, 116.61135661, 39.98402903, 477.53195959, 2.26273537, -0.29515523, 353.39013672, 0.8754, 85.1000, 6.3300
