Frame, Timestamp, Time_of_day, Day_of_year, Longitude, Latitude, Altitude, Pitch, Roll, Yaw, Rain_ratio, Visibility, Snow_now
6, 0.05078, 34199.00, 46.00, 116.61498939, 39.96103522, 611.22907115, 3.54218292, 0.16418082, 353.06521606, 0.0000, 91.3103, 6.4100
7, 0.10938, 34199.00, 46.00, 116.61498068, 39.96108799, 610.93187575, 3.56429458, 0.19226143, 353.05676270, 0.0000, 91.3069, 6.4100
8, 0.16016, 34199.00, 46.00, 116.61497207, 39.96114024, 610.63898302, 3.58386803, 0.21894094, 353.04800415, 0.0000, 91.3034, 6.4100
9, 0.21484, 34199.00, 46.00, 116.61496399, 39.96118925, 610.36542190, 3.60004091, 0.24287505, 353.03945923, 0.0000, 91.2999, 6.4100
10, 0.26563, 34199.00, 46.00, 116.61495606, 39.96123740, 610.09784356, 3.61382508, 0.26530895, 353.03079224, 0.0000, 91.2967, 6.4100
11, 0.32031, 34199.00, 46.00, 116.61494747, 39.96128951, 609.80950719, 3.62639141, 0.28836393, 353.02114868, 0.0000, 91.2933, 6.4100
12, 0.37109, 34199.00, 46.00, 116.61493933, 39.96133895, 609.53715863, 3.63610816, 0.30908924, 353.01174927, 0.0000, 91.2900, 6.4100
13, 0.42578, 34199.00, 46.00, 116.61493096, 39.96138978, 609.25843642, 3.64390230, 0.32926822, 353.00189209, 0.0000, 91.2866, 6.4100
14, 0.47656, 34199.00, 46.00, 116.61492306, 39.96143778, 608.99632100, 3.64929819, 0.34733891, 352.99246216, 0.0000, 91.2834, 6.4100
15, 0.52734, 34199.00, 46.00, 116.61491535, 39.96148461, 608.74168834, 3.65279007, 0.36409616, 352.98312378, 0.0000, 91.2804, 6.4100
16, 0.57813, 34199.00, 46.00, 116.61490700, 39.96153539, 608.46667132, 3.65467215, 0.38135022, 352.97293091, 0.0000, 91.2769, 6.4100
17, 0.63281, 34199.00, 46.00, 116.61489867, 39.96158603, 608.19351068, 3.65476537, 0.39576536, 352.96267700, 0.0000, 91.2735, 6.4100
18, 0.68750, 34199.00, 46.00, 116.61489027, 39.96163715, 607.91880563, 3.65330744, 0.40369412, 352.95214844, 0.0000, 91.2702, 6.4100
19, 0.73828, 34199.00, 46.00, 116.61488209, 39.96168693, 607.65222673, 3.65051937, 0.40426239, 352.94189453, 0.0000, 91.2668, 6.4100
20, 0.79688, 34199.00, 46.00, 116.61487355, 39.96173885, 607.37507680, 3.64621520, 0.39823869, 352.93109131, 0.0000, 91.2633, 6.4100
21, 0.85156, 34199.00, 46.00, 116.61486459, 39.96179341, 607.08487354, 3.64002991, 0.38965678, 352.91973877, 0.0000, 91.2596, 6.4100
22, 0.90234, 34199.00, 46.00, 116.61485630, 39.96184392, 606.81719545, 3.63281059, 0.38143393, 352.90939331, 0.0000, 91.2564, 6.4100
23, 0.95313, 34199.00, 46.00, 116.61484852, 39.96189132, 606.56677281, 3.62482142, 0.37370551, 352.89968872, 0.0000, 91.2532, 6.4100
24, 1.00391, 34199.00, 46.00, 116.61484057, 39.96193974, 606.31204695, 3.61602139, 0.36584175, 352.88995361, 0.0000, 91.2500, 6.4100
25, 1.05469, 34199.00, 46.00, 116.61483265, 39.96198798, 606.05933506, 3.60690451, 0.35804912, 352.88031006, 0.0000, 91.2467, 6.4100
26, 1.10547, 34199.00, 46.00, 116.61482470, 39.96203645, 605.80642613, 3.59755826, 0.35026979, 352.87084961, 0.0000, 91.2435, 6.4100
27, 1.16016, 34199.00, 46.00, 116.61481671, 39.96208518, 605.55310747, 3.58811235, 0.34250474, 352.86145020, 0.0000, 91.2403, 6.4100
28, 1.21484, 34199.00, 46.00, 116.61480843, 39.96213566, 605.29166477, 3.57839227, 0.33452731, 352.85192871, 0.0000, 91.2368, 6.4100
29, 1.27344, 34199.00, 46.00, 116.61479932, 39.96219123, 605.00494967, 3.56787133, 0.32583109, 352.84170532, 0.0000, 91.2331, 6.4100
30, 1.32813, 34199.00, 46.00, 116.61479071, 39.96224376, 604.73479810, 3.55817437, 0.31769696, 352.83230591, 0.0000, 91.2297, 6.4100
31, 1.38281, 34199.00, 46.00, 116.61478211, 39.96229627, 604.46562639, 3.54878402, 0.30965814, 352.82315063, 0.0000, 91.2262, 6.4100
32, 1.43359, 34199.00, 46.00, 116.61477377, 39.96234721, 604.20522778, 3.53999710, 0.30195194, 352.81454468, 0.0000, 91.2227, 6.4100
33, 1.49609, 34199.00, 46.00, 116.61476537, 39.96239848, 603.94382447, 3.53149724, 0.29429290, 352.80618286, 0.0000, 91.2193, 6.4100
34, 1.55078, 34199.00, 46.00, 116.61475594, 39.96245606, 603.65100829, 3.52236867, 0.28581423, 352.79718018, 0.0000, 91.2153, 6.4100
35, 1.60156, 34199.00, 46.00, 116.61474799, 39.96250460, 603.40473203, 3.51506901, 0.27877057, 352.78982544, 0.0000, 91.2121, 6.4100
36, 1.65234, 34199.00, 46.00, 116.61474003, 39.96255323, 603.15841817, 3.50923085, 0.27181506, 352.78280640, 0.0000, 91.2089, 6.4100
37, 1.70313, 34199.00, 46.00, 116.61473207, 39.96260182, 602.91266193, 3.50518179, 0.26496854, 352.77606201, 0.0000, 91.2057, 6.4100
38, 1.75391, 34199.00, 46.00, 116.61472408, 39.96265065, 602.66598260, 3.50281739, 0.25819436, 352.76962280, 0.0000, 91.2025, 6.4100
39, 1.80469, 34199.00, 46.00, 116.61471634, 39.96269793, 602.42747602, 3.50203681, 0.25174007, 352.76364136, 0.0000, 91.1992, 6.4100
40, 1.85547, 34199.00, 46.00, 116.61470851, 39.96274581, 602.18628298, 3.50262189, 0.24531233, 352.75793457, 0.0000, 91.1960, 6.4100
41, 1.90625, 34199.00, 46.00, 116.61470077, 39.96279310, 601.94833107, 3.50427842, 0.23907022, 352.75259399, 0.0000, 91.1928, 6.4100
42, 1.95703, 34199.00, 46.00, 116.61469293, 39.96284103, 601.70750309, 3.50668311, 0.23285514, 352.74746704, 0.0000, 91.1896, 6.4100
43, 2.00781, 34199.00, 46.00, 116.61468474, 39.96289109, 601.45636997, 3.50962472, 0.22648610, 352.74249268, 0.0000, 91.1864, 6.4100
44, 2.05859, 34199.00, 46.00, 116.61467689, 39.96293907, 601.21608026, 3.51256728, 0.22050011, 352.73800659, 0.0000, 91.1832, 6.4100
45, 2.11328, 34199.00, 46.00, 116.61466884, 39.96298826, 600.97008109, 3.51550412, 0.21448383, 352.73373413, 0.0000, 91.1799, 6.4100
46, 2.16797, 34199.00, 46.00, 116.61466047, 39.96303944, 600.71456589, 3.51822305, 0.20835681, 352.72970581, 0.0000, 91.1765, 6.4100
47, 2.22266, 34199.00, 46.00, 116.61465199, 39.96309131, 600.45611845, 3.52028084, 0.20228691, 352.72592163, 0.0000, 91.1730, 6.4100
48, 2.27734, 34199.00, 46.00, 116.61464364, 39.96314235, 600.20223897, 3.52124476, 0.19645119, 352.72256470, 0.0000, 91.1695, 6.4100
49, 2.32813, 34199.00, 46.00, 116.61463547, 39.96319230, 599.95426841, 3.52087426, 0.19087425, 352.71963501, 0.0000, 91.1661, 6.4100
50, 2.37891, 34199.00, 46.00, 116.61462740, 39.96324163, 599.70983164, 3.51901102, 0.18549745, 352.71707153, 0.0000, 91.1629, 6.4100
51, 2.42969, 34199.00, 46.00, 116.61461955, 39.96328962, 599.47246598, 3.51562428, 0.18039253, 352.71487427, 0.0000, 91.1597, 6.4100
52, 2.48438, 34199.00, 46.00, 116.61461171, 39.96333757, 599.23568677, 3.51059246, 0.17541601, 352.71301270, 0.0000, 91.1564, 6.4100
53, 2.53516, 34199.00, 46.00, 116.61460322, 39.96338950, 598.97970165, 3.50319171, 0.17016792, 352.71127319, 0.0000, 91.1530, 6.4100
54, 2.58984, 34199.00, 46.00, 116.61459509, 39.96343920, 598.73506411, 3.49417210, 0.16528192, 352.70999146, 0.0000, 91.1498, 6.4100
55, 2.64453, 34199.00, 46.00, 116.61458691, 39.96348925, 598.48905643, 3.48321724, 0.16049664, 352.70895386, 0.0000, 91.1463, 6.4100
56, 2.69531, 34199.00, 46.00, 116.61457846, 39.96354091, 598.23543241, 3.47012043, 0.15569958, 352.70825195, 0.0000, 91.1428, 6.4100
57, 2.75000, 34199.00, 46.00, 116.61457026, 39.96359110, 597.98925675, 3.45593715, 0.15117726, 352.70788574, 0.0000, 91.1394, 6.4100
58, 2.80078, 34199.00, 46.00, 116.61456232, 39.96363967, 597.75112937, 3.44109011, 0.14692830, 352.70779419, 0.0000, 91.1362, 6.4100
59, 2.85156, 34199.00, 46.00, 116.61455446, 39.96368770, 597.51575730, 3.42554736, 0.14285071, 352.70797729, 0.0000, 91.1329, 6.4100
60, 2.90625, 34199.00, 46.00, 116.61454613, 39.96373866, 597.26608440, 3.40832877, 0.13865849, 352.70849609, 0.0000, 91.1297, 6.4100
61, 2.96094, 34199.00, 46.00, 116.61453762, 39.96379070, 597.01099928, 3.39017391, 0.13451613, 352.70932007, 0.0000, 91.1260, 6.4100
62, 3.01172, 34199.00, 46.00, 116.61452948, 39.96384053, 596.76666477, 3.37244296, 0.13067992, 352.71035767, 0.0000, 91.1228, 6.4100
63, 3.06641, 34199.00, 46.00, 116.61452156, 39.96388896, 596.52902257, 3.35502267, 0.12707169, 352.71160889, 0.0000, 91.1196, 6.4100
64, 3.11719, 34199.00, 46.00, 116.61451325, 39.96393975, 596.27958976, 3.33668041, 0.12341389, 352.71319580, 0.0000, 91.1161, 6.4100
65, 3.16797, 34199.00, 46.00, 116.61450558, 39.96398670, 596.04871243, 3.31975269, 0.12014370, 352.71487427, 0.0000, 91.1129, 6.4100
66, 3.21875, 34199.00, 46.00, 116.61449760, 39.96403547, 595.80858587, 3.30227971, 0.11685978, 352.71685791, 0.0000, 91.1097, 6.4100
67, 3.27344, 34199.00, 46.00, 116.61448970, 39.96408380, 595.57029733, 3.28514099, 0.11371686, 352.71899414, 0.0000, 91.1065, 6.4100
68, 3.32813, 34199.00, 46.00, 116.61448148, 39.96413412, 595.32177314, 3.26753116, 0.11055977, 352.72143555, 0.0000, 91.1030, 6.4100
69, 3.37891, 34199.00, 46.00, 116.61447324, 39.96418450, 595.07243298, 3.25018120, 0.10751355, 352.72409058, 0.0000, 91.0998, 6.4100
70, 3.42969, 34199.00, 46.00, 116.61446511, 39.96423423, 594.82585169, 3.23336959, 0.10461774, 352.72692871, 0.0000, 91.0963, 6.4100
71, 3.48047, 34199.00, 46.00, 116.61445711, 39.96428315, 594.58273686, 3.21715617, 0.10187345, 352.72988892, 0.0000, 91.0931, 6.4100
72, 3.53125, 34199.00, 46.00, 116.61444907, 39.96433233, 594.33780900, 3.20119333, 0.09921699, 352.73297119, 0.0000, 91.0899, 6.4100
73, 3.58203, 34199.00, 46.00, 116.61444110, 39.96438107, 594.09446373, 3.18570900, 0.09668265, 352.73623657, 0.0000, 91.0867, 6.4100
74, 3.63672, 34199.00, 46.00, 116.61443319, 39.96442947, 593.85221573, 3.17066574, 0.09426085, 352.73959351, 0.0000, 91.0832, 6.4100
75, 3.68750, 34199.00, 46.00, 116.61442518, 39.96447845, 593.60643834, 3.15577793, 0.09190323, 352.74310303, 0.0000, 91.0800, 6.4100
76, 3.73828, 34199.00, 46.00, 116.61441712, 39.96452776, 593.35830437, 3.14111853, 0.08962190, 352.74679565, 0.0000, 91.0768, 6.4100
77, 3.79297, 34199.00, 46.00, 116.61440897, 39.96457761, 593.10678975, 3.12662911, 0.08740741, 352.75064087, 0.0000, 91.0733, 6.4100
78, 3.85156, 34199.00, 46.00, 116.61440037, 39.96463027, 592.84034059, 3.11166692, 0.08516512, 352.75476074, 0.0000, 91.0699, 6.4100
79, 3.90625, 34199.00, 46.00, 116.61439183, 39.96468246, 592.57540627, 3.09716415, 0.08303723, 352.75897217, 0.0000, 91.0664, 6.4100
80, 3.95703, 34199.00, 46.00, 116.61438343, 39.96473386, 592.31363025, 3.08318424, 0.08103056, 352.76321411, 0.0000, 91.0629, 6.4100
81, 4.01172, 34199.00, 46.00, 116.61437534, 39.96478333, 592.06096519, 3.07000661, 0.07917995, 352.76736450, 0.0000, 91.0597, 6.4100
82, 4.06250, 34199.00, 46.00, 116.61436748, 39.96483144, 591.81443213, 3.05743337, 0.07745263, 352.77148438, 0.0000, 91.0565, 6.4100
83, 4.11328, 34199.00, 46.00, 116.61435951, 39.96488021, 591.56377879, 3.04492378, 0.07577258, 352.77566528, 0.0000, 91.0530, 6.4100
84, 4.16797, 34199.00, 46.00, 116.61435154, 39.96492897, 591.31239036, 3.03263450, 0.07416149, 352.77984619, 0.0000, 91.0498, 6.4100
85, 4.21875, 34199.00, 46.00, 116.61434306, 39.96498081, 591.04422309, 3.01979232, 0.07252099, 352.78436279, 0.0000, 91.0464, 6.4100
86, 4.27344, 34199.00, 46.00, 116.61433490, 39.96503073, 590.78511200, 3.00763035, 0.07100874, 352.78872681, 0.0000, 91.0429, 6.4100
87, 4.32813, 34199.00, 46.00, 116.61432613, 39.96508441, 590.50556566, 2.99476433, 0.06945398, 352.79342651, 0.0000, 91.0394, 6.4100
88, 4.38281, 34199.00, 46.00, 116.61431810, 39.96513355, 590.24875329, 2.98316360, 0.06809175, 352.79776001, 0.0000, 91.0362, 6.4100
89, 4.43359, 34199.00, 46.00, 116.61430989, 39.96518374, 589.98557473, 2.97148681, 0.06675810, 352.80212402, 0.0000, 91.0327, 6.4100
90, 4.48828, 34199.00, 46.00, 116.61430147, 39.96523531, 589.71426492, 2.95966172, 0.06544645, 352.80661011, 0.0000, 91.0293, 6.4100
91, 4.53906, 34199.00, 46.00, 116.61429352, 39.96528394, 589.45753415, 2.94866133, 0.06426030, 352.81079102, 0.0000, 91.0261, 6.4100
92, 4.59766, 34199.00, 46.00, 116.61428548, 39.96533316, 589.19680676, 2.93767262, 0.06310800, 352.81503296, 0.0000, 91.0226, 6.4100
93, 4.65234, 34199.00, 46.00, 116.61427657, 39.96538764, 588.90717401, 2.92567062, 0.06188584, 352.81964111, 0.0000, 91.0191, 6.4100
94, 4.70313, 34199.00, 46.00, 116.61426837, 39.96543783, 588.63937994, 2.91476393, 0.06080661, 352.82382202, 0.0000, 91.0157, 6.4100
95, 4.75391, 34199.00, 46.00, 116.61426032, 39.96548713, 588.37543695, 2.90419579, 0.05978804, 352.82788086, 0.0000, 91.0125, 6.4100
96, 4.80859, 34199.00, 46.00, 116.61425235, 39.96553590, 588.11343220, 2.89388347, 0.05881795, 352.83184814, 0.0000, 91.0090, 6.4100
97, 4.85938, 34199.00, 46.00, 116.61424445, 39.96558421, 587.85303247, 2.88380885, 0.05789212, 352.83566284, 0.0000, 91.0058, 6.4100
98, 4.91016, 34199.00, 46.00, 116.61423653, 39.96563273, 587.59065409, 2.87383294, 0.05699515, 352.83941650, 0.0000, 91.0026, 6.4100
99, 4.96094, 34199.00, 46.00, 116.61422862, 39.96568112, 587.32804669, 2.86402225, 0.05613186, 352.84313965, 0.0000, 90.9993, 6.4100
100, 5.01172, 34199.00, 46.00, 116.61422089, 39.96572842, 587.07050362, 2.85456991, 0.05531564, 352.84667969, 0.0000, 90.9961, 6.4100
101, 5.06250, 34199.00, 46.00, 116.61421311, 39.96577609, 586.81013496, 2.84518337, 0.05451907, 352.85012817, 0.0000, 90.9929, 6.4100
102, 5.11328, 34199.00, 46.00, 116.61420508, 39.96582524, 586.54074452, 2.83565116, 0.05372308, 352.85357666, 0.0000, 90.9897, 6.4100
103, 5.16797, 34199.00, 46.00, 116.61419708, 39.96587423, 586.27128215, 2.82629657, 0.05295374, 352.85699463, 0.0000, 90.9865, 6.4100
104, 5.22266, 34199.00, 46.00, 116.61418840, 39.96592735, 585.97809048, 2.81632280, 0.05214387, 352.86050415, 0.0000, 90.9828, 6.4100
105, 5.27734, 34199.00, 46.00, 116.61418036, 39.96597661, 585.70523988, 2.80723143, 0.05141365, 352.86361694, 0.0000, 90.9796, 6.4100
106, 5.32813, 34199.00, 46.00, 116.61417191, 39.96602830, 585.41792826, 2.79785681, 0.05066770, 352.86682129, 0.0000, 90.9761, 6.4100
107, 5.38281, 34199.00, 46.00, 116.61416395, 39.96607706, 585.14599426, 2.78917289, 0.04998068, 352.86972046, 0.0000, 90.9729, 6.4100
108, 5.43359, 34199.00, 46.00, 116.61415582, 39.96612688, 584.86716287, 2.78045940, 0.04929389, 352.87252808, 0.0000, 90.9694, 6.4100
109, 5.48828, 34199.00, 46.00, 116.61414764, 39.96617697, 584.58589539, 2.77186298, 0.04861760, 352.87527466, 0.0000, 90.9659, 6.4100
110, 5.53906, 34199.00, 46.00, 116.61413950, 39.96622680, 584.30514345, 2.76347589, 0.04795682, 352.87783813, 0.0000, 90.9627, 6.4100
111, 5.59375, 34199.00, 46.00, 116.61413141, 39.96627640, 584.02477433, 2.75529099, 0.04731039, 352.88027954, 0.0000, 90.9593, 6.4100
112, 5.64453, 34199.00, 46.00, 116.61412327, 39.96632622, 583.74216207, 2.74723363, 0.04667025, 352.88259888, 0.0000, 90.9560, 6.4100
113, 5.70313, 34199.00, 46.00, 116.61411498, 39.96637700, 583.45316832, 2.73919654, 0.04602620, 352.88482666, 0.0000, 90.9526, 6.4100
114, 5.75391, 34199.00, 46.00, 116.61410637, 39.96642976, 583.15192224, 2.73103118, 0.04536477, 352.88702393, 0.0000, 90.9491, 6.4100
115, 5.80859, 34199.00, 46.00, 116.61409814, 39.96648016, 582.86312973, 2.72340894, 0.04473878, 352.88894653, 0.0000, 90.9457, 6.4100
116, 5.85938, 34199.00, 46.00, 116.61409011, 39.96652938, 582.58019451, 2.71613503, 0.04413235, 352.89071655, 0.0000, 90.9424, 6.4100
117, 5.91016, 34199.00, 46.00, 116.61408220, 39.96657783, 582.30079451, 2.70914054, 0.04353875, 352.89230347, 0.0000, 90.9392, 6.4100
118, 5.96484, 34199.00, 46.00, 116.61407427, 39.96662642, 582.01978633, 2.70229697, 0.04294588, 352.89376831, 0.0000, 90.9358, 6.4100
119, 6.01563, 34199.00, 46.00, 116.61406651, 39.96667397, 581.74388478, 2.69576120, 0.04236740, 352.89511108, 0.0000, 90.9328, 6.4100
120, 6.06641, 34199.00, 46.00, 116.61405858, 39.96672259, 581.46093419, 2.68924594, 0.04177670, 352.89633179, 0.0000, 90.9293, 6.4100
121, 6.11719, 34199.00, 46.00, 116.61405084, 39.96677003, 581.18406653, 2.68305278, 0.04120087, 352.89743042, 0.0000, 90.9261, 6.4100
122, 6.16797, 34199.00, 46.00, 116.61404305, 39.96681778, 580.90456106, 2.67698359, 0.04062093, 352.89840698, 0.0000, 90.9229, 6.4100
123, 6.21875, 34199.00, 46.00, 116.61403493, 39.96686759, 580.61215444, 2.67082882, 0.04001519, 352.89932251, 0.0000, 90.9197, 6.4100
124, 6.26953, 34199.00, 46.00, 116.61402711, 39.96691552, 580.32991700, 2.66507602, 0.03943069, 352.90005493, 0.0000, 90.9165, 6.4100
125, 6.32031, 34199.00, 46.00, 116.61401922, 39.96696384, 580.04457192, 2.65944767, 0.03883962, 352.90066528, 0.0000, 90.9133, 6.4100
126, 6.37500, 34199.00, 46.00, 116.61401127, 39.96701263, 579.75564321, 2.65393949, 0.03824042, 352.90118408, 0.0000, 90.9100, 6.4100
127, 6.42578, 34199.00, 46.00, 116.61400326, 39.96706172, 579.46413561, 2.64857531, 0.03763489, 352.90161133, 0.0000, 90.9066, 6.4100
128, 6.48438, 34199.00, 46.00, 116.61399515, 39.96711144, 579.16800794, 2.64332366, 0.03701821, 352.90191650, 0.0000, 90.9034, 6.4100
129, 6.53516, 34199.00, 46.00, 116.61398648, 39.96716462, 578.85043240, 2.63791156, 0.03635493, 352.90209961, 0.0000, 90.8996, 6.4100
130, 6.58984, 34199.00, 46.00, 116.61397833, 39.96721459, 578.55112334, 2.63301611, 0.03572793, 352.90219116, 0.0000, 90.8964, 6.4100
131, 6.64063, 34199.00, 46.00, 116.61397039, 39.96726326, 578.25878105, 2.62842774, 0.03511329, 352.90213013, 0.0000, 90.8930, 6.4100
132, 6.69141, 34199.00, 46.00, 116.61396239, 39.96731235, 577.96318526, 2.62398124, 0.03448987, 352.90200806, 0.0000, 90.8897, 6.4100
133, 6.74219, 34199.00, 46.00, 116.61395448, 39.96736083, 577.67050191, 2.61976743, 0.03386999, 352.90176392, 0.0000, 90.8865, 6.4100
134, 6.79297, 34199.00, 46.00, 116.61394661, 39.96740915, 577.37807864, 2.61574435, 0.03324846, 352.90145874, 0.0000, 90.8833, 6.4100
135, 6.84766, 34199.00, 46.00, 116.61393868, 39.96745776, 577.08311607, 2.61187434, 0.03261952, 352.90109253, 0.0000, 90.8801, 6.4100
136, 6.89844, 34199.00, 46.00, 116.61393069, 39.96750676, 576.78505448, 2.60815215, 0.03198109, 352.90057373, 0.0000, 90.8766, 6.4100
137, 6.94922, 34199.00, 46.00, 116.61392259, 39.96755648, 576.48191410, 2.60455847, 0.03132939, 352.89993286, 0.0000, 90.8734, 6.4100
138, 7.00391, 34199.00, 46.00, 116.61391460, 39.96760549, 576.18237043, 2.60119891, 0.03068347, 352.89929199, 0.0000, 90.8700, 6.4100
139, 7.05469, 34199.00, 46.00, 116.61390670, 39.96765397, 575.88533799, 2.59805131, 0.03004090, 352.89855957, 0.0000, 90.8667, 6.4100
140, 7.10938, 34199.00, 46.00, 116.61389824, 39.96770586, 575.56672345, 2.59487653, 0.02934971, 352.89770508, 0.0000, 90.8633, 6.4100
141, 7.16016, 34199.00, 46.00, 116.61389021, 39.96775515, 575.26332800, 2.59204388, 0.02869000, 352.89685059, 0.0000, 90.8601, 6.4100
142, 7.21484, 34199.00, 46.00, 116.61388215, 39.96780457, 574.95844332, 2.58938575, 0.02802528, 352.89587402, 0.0000, 90.8566, 6.4100
143, 7.26953, 34199.00, 46.00, 116.61387387, 39.96785542, 574.64410487, 2.58683968, 0.02733897, 352.89480591, 0.0000, 90.8534, 6.4100
144, 7.32031, 34199.00, 46.00, 116.61386581, 39.96790485, 574.33784144, 2.58454418, 0.02666950, 352.89373779, 0.0000, 90.8499, 6.4100
145, 7.37109, 34199.00, 46.00, 116.61385788, 39.96795350, 574.03577984, 2.58245993, 0.02600871, 352.89260864, 0.0000, 90.8467, 6.4100
146, 7.42578, 34199.00, 46.00, 116.61384986, 39.96800273, 573.72949542, 2.58052588, 0.02533837, 352.89141846, 0.0000, 90.8435, 6.4100
147, 7.47656, 34199.00, 46.00, 116.61384190, 39.96805159, 573.42488735, 2.57877898, 0.02467224, 352.89025879, 0.0000, 90.8400, 6.4100
148, 7.53125, 34199.00, 46.00, 116.61383354, 39.96810291, 573.10437676, 2.57712913, 0.02397185, 352.88894653, 0.0000, 90.8366, 6.4100
149, 7.58203, 34199.00, 46.00, 116.61382543, 39.96815267, 572.79297530, 2.57570791, 0.02329201, 352.88763428, 0.0000, 90.8333, 6.4100
150, 7.63672, 34199.00, 46.00, 116.61381744, 39.96820173, 572.48538935, 2.57447982, 0.02262191, 352.88629150, 0.0000, 90.8299, 6.4100
151, 7.68750, 34199.00, 46.00, 116.61380951, 39.96825038, 572.17980212, 2.57342672, 0.02195783, 352.88494873, 0.0000, 90.8267, 6.4100
152, 7.73828, 34199.00, 46.00, 116.61380159, 39.96829898, 571.87400942, 2.57254004, 0.02129547, 352.88360596, 0.0000, 90.8234, 6.4100
153, 7.78906, 34199.00, 46.00, 116.61379368, 39.96834756, 571.56787728, 2.57181764, 0.02063452, 352.88220215, 0.0000, 90.8202, 6.4100
154, 7.84375, 34199.00, 46.00, 116.61378568, 39.96839665, 571.25792611, 2.57125044, 0.01996840, 352.88076782, 0.0000, 90.8168, 6.4100
155, 7.89453, 34199.00, 46.00, 116.61377775, 39.96844535, 570.95001291, 2.57084942, 0.01930994, 352.87933350, 0.0000, 90.8136, 6.4100
156, 7.94531, 34199.00, 46.00, 116.61376982, 39.96849402, 570.64181071, 2.57060790, 0.01865466, 352.87792969, 0.0000, 90.8103, 6.4100
157, 7.99609, 34199.00, 46.00, 116.61376195, 39.96854232, 570.33549790, 2.57052302, 0.01800734, 352.87646484, 0.0000, 90.8071, 6.4100
158, 8.05078, 34199.00, 46.00, 116.61375395, 39.96859147, 570.02331476, 2.57059455, 0.01735257, 352.87500000, 0.0000, 90.8039, 6.4100
159, 8.10156, 34199.00, 46.00, 116.61374596, 39.96864053, 569.71122324, 2.57082272, 0.01670280, 352.87353516, 0.0000, 90.8004, 6.4100
160, 8.15234, 34199.00, 46.00, 116.61373807, 39.96868897, 569.40271535, 2.57119870, 0.01606630, 352.87210083, 0.0000, 90.7972, 6.4100
161, 8.20313, 34199.00, 46.00, 116.61373013, 39.96873769, 569.09199572, 2.57172775, 0.01543092, 352.87066650, 0.0000, 90.7940, 6.4100
162, 8.26172, 34199.00, 46.00, 116.61372180, 39.96878885, 568.76525191, 2.57244420, 0.01476975, 352.86914063, 0.0000, 90.7905, 6.4100
163, 8.31250, 34199.00, 46.00, 116.61371376, 39.96883820, 568.44970852, 2.57328796, 0.01413820, 352.86770630, 0.0000, 90.7871, 6.4100
164, 8.36328, 34199.00, 46.00, 116.61370580, 39.96888709, 568.13674046, 2.57427025, 0.01351890, 352.86627197, 0.0000, 90.7839, 6.4100
165, 8.41406, 34199.00, 46.00, 116.61369776, 39.96893645, 567.82038633, 2.57540774, 0.01290095, 352.86486816, 0.0000, 90.7806, 6.4100
166, 8.47656, 34199.00, 46.00, 116.61368917, 39.96898914, 567.48226247, 2.57678103, 0.01224945, 352.86337280, 0.0000, 90.7769, 6.4100
167, 8.52734, 34199.00, 46.00, 116.61368069, 39.96904124, 567.14759838, 2.57829928, 0.01161417, 352.86193848, 0.0000, 90.7735, 6.4100
168, 8.57813, 34199.00, 46.00, 116.61367258, 39.96909106, 566.82726944, 2.57989502, 0.01101574, 352.86059570, 0.0000, 90.7703, 6.4100
169, 8.63281, 34199.00, 46.00, 116.61366471, 39.96913938, 566.51623306, 2.58157516, 0.01044340, 352.85928345, 0.0000, 90.7670, 6.4100
170, 8.68359, 34199.00, 46.00, 116.61365668, 39.96918865, 566.19880163, 2.58342004, 0.00986923, 352.85800171, 0.0000, 90.7636, 6.4100
171, 8.73438, 34199.00, 46.00, 116.61364871, 39.96923760, 565.88318616, 2.58538437, 0.00930792, 352.85671997, 0.0000, 90.7604, 6.4100
172, 8.78906, 34199.00, 46.00, 116.61364074, 39.96928652, 565.56747175, 2.58747578, 0.00875692, 352.85549927, 0.0000, 90.7571, 6.4100
173, 8.83984, 34199.00, 46.00, 116.61363279, 39.96933536, 565.25208568, 2.58968997, 0.00821685, 352.85427856, 0.0000, 90.7537, 6.4100
174, 8.89063, 34199.00, 46.00, 116.61362485, 39.96938411, 564.93700579, 2.59202576, 0.00768823, 352.85314941, 0.0000, 90.7505, 6.4100
175, 8.94141, 34199.00, 46.00, 116.61361688, 39.96943299, 564.62085104, 2.59449029, 0.00716898, 352.85202026, 0.0000, 90.7473, 6.4100
176, 8.99609, 34199.00, 46.00, 116.61360891, 39.96948197, 564.30389502, 2.59707952, 0.00665996, 352.85098267, 0.0000, 90.7438, 6.4100
177, 9.04688, 34199.00, 46.00, 116.61360085, 39.96953143, 563.98359386, 2.59981585, 0.00615706, 352.84991455, 0.0000, 90.7406, 6.4100
178, 9.10156, 34199.00, 46.00, 116.61359287, 39.96958047, 563.66585753, 2.60264707, 0.00567004, 352.84887695, 0.0000, 90.7374, 6.4100
179, 9.15234, 34199.00, 46.00, 116.61358489, 39.96962946, 563.34821229, 2.60558796, 0.00519551, 352.84793091, 0.0000, 90.7339, 6.4100
180, 9.20703, 34199.00, 46.00, 116.61357672, 39.96967960, 563.02301071, 2.60871267, 0.00472195, 352.84695435, 0.0000, 90.7307, 6.4100
181, 9.26172, 34199.00, 46.00, 116.61356838, 39.96973078, 562.69092862, 2.61201835, 0.00425249, 352.84606934, 0.0000, 90.7272, 6.4100
182, 9.31250, 34199.00, 46.00, 116.61356028, 39.96978056, 562.36776513, 2.61534286, 0.00380849, 352.84518433, 0.0000, 90.7237, 6.4100
183, 9.36328, 34199.00, 46.00, 116.61355246, 39.96982854, 562.05620475, 2.61864376, 0.00339298, 352.84442139, 0.0000, 90.7205, 6.4100
184, 9.41406, 34199.00, 46.00, 116.61354465, 39.96987647, 561.74484893, 2.62203360, 0.00298987, 352.84365845, 0.0000, 90.7173, 6.4100
185, 9.46484, 34199.00, 46.00, 116.61353680, 39.96992466, 561.43170875, 2.62553215, 0.00259736, 352.84298706, 0.0000, 90.7141, 6.4100
186, 9.51563, 34199.00, 46.00, 116.61352893, 39.96997298, 561.11762122, 2.62912798, 0.00221597, 352.84231567, 0.0000, 90.7109, 6.4100
187, 9.57031, 34199.00, 46.00, 116.61352113, 39.97002088, 560.80625861, 2.63277578, 0.00185097, 352.84170532, 0.0000, 90.7077, 6.4100
188, 9.62109, 34199.00, 46.00, 116.61351292, 39.97007127, 560.47864791, 2.63670135, 0.00148025, 352.84109497, 0.0000, 90.7042, 6.4100
189, 9.67188, 34199.00, 46.00, 116.61350495, 39.97012023, 560.16024973, 2.64059758, 0.00113357, 352.84057617, 0.0000, 90.7010, 6.4100
190, 9.72656, 34199.00, 46.00, 116.61349679, 39.97017032, 559.83450259, 2.64466357, 0.00079259, 352.84005737, 0.0000, 90.7000, 6.4100
191, 9.77734, 34199.00, 46.00, 116.61348887, 39.97021897, 559.51814775, 2.64868474, 0.00047509, 352.83963013, 0.0000, 90.7000, 6.4100
192, 9.83203, 34199.00, 46.00, 116.61348091, 39.97026779, 559.20064049, 2.65278983, 0.00016948, 352.83923340, 0.0000, 90.7000, 6.4100
193, 9.89063, 34199.00, 46.00, 116.61347185, 39.97032340, 558.83896475, 2.65755296, -0.00016273, 352.83880615, 0.0000, 90.7000, 6.4100
194, 9.94531, 34199.00, 46.00, 116.61346352, 39.97037459, 558.50611947, 2.66200972, -0.00045328, 352.83850098, 0.0000, 90.7000, 6.4100
195, 9.99609, 34199.00, 46.00, 116.61345553, 39.97042363, 558.18723983, 2.66634035, -0.00071809, 352.83822632, 0.0000, 90.7000, 6.4100
196, 10.04688, 34199.00, 46.00, 116.61344746, 39.97047314, 557.86533726, 2.67078137, -0.00077263, 352.83798218, 0.0000, 90.7000, 6.4100
197, 10.09766, 34199.00, 46.00, 116.61343951, 39.97052193, 557.54812676, 2.67537332, 0.00273920, 352.83786011, 0.0000, 90.7000, 6.4100
198, 10.15234, 34199.00, 46.00, 116.61343168, 39.97057003, 557.23536945, 2.68021154, 0.01220748, 352.83782959, 0.0000, 90.7000, 6.4100
199, 10.20313, 34199.00, 46.00, 116.61342372, 39.97061889, 556.91761653, 2.68544841, 0.02834770, 352.83795166, 0.0000, 90.7000, 6.4100
200, 10.25391, 34199.00, 46.00, 116.61341557, 39.97066894, 556.59209767, 2.69113088, 0.05168797, 352.83819580, 0.0000, 90.7000, 6.4100
201, 10.30859, 34199.00, 46.00, 116.61340724, 39.97072004, 556.25975632, 2.69716549, 0.08111811, 352.83859253, 0.0000, 90.7000, 6.4100
202, 10.36328, 34199.00, 46.00, 116.61339922, 39.97076932, 555.93927458, 2.70298719, 0.11062393, 352.83908081, 0.0000, 90.7000, 6.4100
203, 10.41797, 34199.00, 46.00, 116.61339103, 39.97081958, 555.61251182, 2.70884347, 0.14045732, 352.83966064, 0.0000, 90.7000, 6.4100
204, 10.50000, 34199.00, 46.00, 116.61338291, 39.97086947, 555.28832560, 2.71454954, 0.16958579, 352.84030151, 0.0000, 90.7000, 6.4100
205, 10.56641, 34199.00, 46.00, 116.61336750, 39.97096409, 554.67391288, 2.72510767, 0.22338897, 352.84179688, 0.0000, 90.7000, 6.4100
206, 10.62109, 34199.00, 46.00, 116.61335685, 39.97102951, 554.24944318, 2.73220301, 0.25952441, 352.84301758, 0.0000, 90.7000, 6.4100
207, 10.67188, 34199.00, 46.00, 116.61334877, 39.97107914, 553.92765281, 2.73745799, 0.28634691, 352.84408569, 0.0000, 90.7000, 6.4100
208, 10.72656, 34199.00, 46.00, 116.61334073, 39.97112850, 553.60772403, 2.74258494, 0.31252065, 352.84518433, 0.0000, 90.7000, 6.4100
209, 10.77734, 34199.00, 46.00, 116.61333260, 39.97117845, 553.28424309, 2.74768806, 0.33849165, 352.84646606, 0.0000, 90.7000, 6.4100
210, 10.82813, 34199.00, 46.00, 116.61332461, 39.97122755, 552.96645905, 2.75263190, 0.36352342, 352.84780884, 0.0000, 90.7000, 6.4100
211, 10.88281, 34199.00, 46.00, 116.61331673, 39.97127604, 552.65280418, 2.75745511, 0.38776055, 352.84924316, 0.0000, 90.7000, 6.4100
212, 10.93359, 34199.00, 46.00, 116.61330848, 39.97132670, 552.32532691, 2.76244092, 0.41257143, 352.85095215, 0.0000, 90.7000, 6.4100
213, 10.98828, 34199.00, 46.00, 116.61330041, 39.97137633, 552.00471209, 2.76728439, 0.43637609, 352.85266113, 0.0000, 90.7000, 6.4100
214, 11.03906, 34199.00, 46.00, 116.61329245, 39.97142533, 551.68841341, 2.77203226, 0.45938644, 352.85449219, 0.0000, 90.7000, 6.4100
215, 11.09375, 34199.00, 46.00, 116.61328453, 39.97147405, 551.37419470, 2.77672577, 0.48178118, 352.85644531, 0.0000, 90.7000, 6.4100
216, 11.14453, 34199.00, 46.00, 116.61327659, 39.97152291, 551.05929836, 2.78141284, 0.50376159, 352.85848999, 0.0000, 90.7000, 6.4100
217, 11.19922, 34199.00, 46.00, 116.61326871, 39.97157143, 550.74679876, 2.78605056, 0.52511573, 352.86071777, 0.0000, 90.7000, 6.4100
218, 11.25000, 34199.00, 46.00, 116.61326024, 39.97162354, 550.41147201, 2.79101944, 0.54751891, 352.86318970, 0.0000, 90.7000, 6.4100
219, 11.30859, 34199.00, 46.00, 116.61325195, 39.97167462, 550.08306773, 2.79588223, 0.56895339, 352.86578369, 0.0000, 90.7000, 6.4100
220, 11.36328, 34199.00, 46.00, 116.61324296, 39.97173004, 549.72705866, 2.80115271, 0.59161776, 352.86880493, 0.0000, 90.7000, 6.4100
221, 11.41797, 34199.00, 46.00, 116.61323479, 39.97178034, 549.40420527, 2.80593300, 0.61166030, 352.87161255, 0.0000, 90.7000, 6.4100
222, 11.47266, 34199.00, 46.00, 116.61322648, 39.97183164, 549.07529630, 2.81080389, 0.63157880, 352.87466431, 0.0000, 90.7000, 6.4100
223, 11.52734, 34199.00, 46.00, 116.61321824, 39.97188243, 548.74990167, 2.81562448, 0.65078652, 352.87786865, 0.0000, 90.7000, 6.4100
224, 11.58203, 34199.00, 46.00, 116.61321000, 39.97193327, 548.42456162, 2.82044625, 0.66949445, 352.88119507, 0.0000, 90.7000, 6.4100
225, 11.63672, 34199.00, 46.00, 116.61320176, 39.97198414, 548.09925812, 2.82526898, 0.68770528, 352.88467407, 0.0000, 90.7000, 6.4100
226, 11.68750, 34199.00, 46.00, 116.61319353, 39.97203501, 547.77434571, 2.83008766, 0.70539957, 352.88827515, 0.0000, 90.7000, 6.4100
227, 11.74219, 34199.00, 46.00, 116.61318545, 39.97208493, 547.45577864, 2.83481169, 0.72226638, 352.89199829, 0.0000, 90.7000, 6.4100
228, 11.79688, 34199.00, 46.00, 116.61317730, 39.97213527, 547.13482944, 2.83957052, 0.73877937, 352.89587402, 0.0000, 90.7000, 6.4100
229, 11.85156, 34199.00, 46.00, 116.61316905, 39.97218632, 546.80970174, 2.84438848, 0.75501502, 352.89996338, 0.0000, 90.7000, 6.4100
230, 11.90234, 34199.00, 46.00, 116.61316091, 39.97223667, 546.48935570, 2.84913206, 0.77052510, 352.90414429, 0.0000, 90.7000, 6.4100
231, 11.95703, 34199.00, 46.00, 116.61315284, 39.97228662, 546.17187474, 2.85382581, 0.78542280, 352.90841675, 0.0000, 90.7000, 6.4100
232, 12.00781, 34199.00, 46.00, 116.61314492, 39.97233570, 545.86028311, 2.85842085, 0.79958677, 352.91271973, 0.0000, 90.7000, 6.4100
233, 12.05859, 34199.00, 46.00, 116.61313716, 39.97238375, 545.55554581, 2.86290574, 0.81299841, 352.91711426, 0.0000, 90.7000, 6.4100
234, 12.10938, 34199.00, 46.00, 116.61312937, 39.97243202, 545.24970147, 2.86739302, 0.82602149, 352.92163086, 0.0000, 90.7000, 6.4100
235, 12.16406, 34199.00, 46.00, 116.61312112, 39.97248319, 544.92582100, 2.87212873, 0.83933532, 352.92657471, 0.0000, 90.7000, 6.4100
236, 12.21484, 34199.00, 46.00, 116.61311324, 39.97253214, 544.61639532, 2.87663698, 0.85159683, 352.93142700, 0.0000, 90.7000, 6.4100
237, 12.26563, 34199.00, 46.00, 116.61310548, 39.97258030, 544.31223377, 2.88104916, 0.86321342, 352.93627930, 0.0000, 90.7000, 6.4100
238, 12.31641, 34199.00, 46.00, 116.61309763, 39.97262904, 544.00474316, 2.88548779, 0.87452042, 352.94134521, 0.0000, 90.7000, 6.4100
239, 12.36719, 34199.00, 46.00, 116.61308999, 39.97267656, 543.70533613, 2.88978696, 0.88510770, 352.94638062, 0.0000, 90.7000, 6.4100
240, 12.42188, 34199.00, 46.00, 116.61308215, 39.97272528, 543.39863197, 2.89416480, 0.89551842, 352.95162964, 0.0000, 90.7000, 6.4100
241, 12.47266, 34199.00, 46.00, 116.61307437, 39.97277369, 543.09428040, 2.89848256, 0.90542048, 352.95700073, 0.0000, 90.7000, 6.4100
242, 12.52734, 34199.00, 46.00, 116.61306626, 39.97282422, 542.77693701, 2.90295577, 0.91528767, 352.96267700, 0.0000, 90.7000, 6.4100
243, 12.57813, 34199.00, 46.00, 116.61305827, 39.97287395, 542.46495198, 2.90732074, 0.92453498, 352.96841431, 0.0000, 90.7000, 6.4100
244, 12.62891, 34199.00, 46.00, 116.61305046, 39.97292266, 542.15978896, 2.91155839, 0.93314892, 352.97412109, 0.0000, 90.7000, 6.4100
245, 12.68359, 34199.00, 46.00, 116.61304258, 39.97297180, 541.85222171, 2.91579390, 0.94140023, 352.97998047, 0.0000, 90.7000, 6.4100
246, 12.73828, 34199.00, 46.00, 116.61303435, 39.97302315, 541.53123936, 2.92017627, 0.94954884, 352.98617554, 0.0000, 90.7000, 6.4100
247, 12.78906, 34199.00, 46.00, 116.61302653, 39.97307202, 541.22612183, 2.92430329, 0.95686281, 352.99218750, 0.0000, 90.7000, 6.4100
248, 12.83984, 34199.00, 46.00, 116.61301874, 39.97312067, 540.92276359, 2.92836857, 0.96371937, 352.99822998, 0.0000, 90.7000, 6.4100
249, 12.89063, 34199.00, 46.00, 116.61301102, 39.97316891, 540.62225633, 2.93235660, 0.97010291, 353.00433350, 0.0000, 90.7000, 6.4100
250, 12.94531, 34199.00, 46.00, 116.61300312, 39.97321836, 540.31467555, 2.93639541, 0.97621679, 353.01065063, 0.0000, 90.7000, 6.4100
251, 12.99609, 34199.00, 46.00, 116.61299519, 39.97326802, 540.00610295, 2.94040370, 0.98192990, 353.01705933, 0.0000, 90.7000, 6.4100
252, 13.05078, 34199.00, 46.00, 116.61298733, 39.97331726, 539.70051300, 2.94432783, 0.98717391, 353.02349854, 0.0000, 90.7000, 6.4100
253, 13.10156, 34199.00, 46.00, 116.61297951, 39.97336630, 539.39652115, 2.94818711, 0.99198258, 353.02996826, 0.0000, 90.7000, 6.4100
254, 13.15625, 34199.00, 46.00, 116.61297166, 39.97341550, 539.09189941, 2.95200586, 0.99639875, 353.03649902, 0.0000, 90.7000, 6.4100
255, 13.21094, 34199.00, 46.00, 116.61296343, 39.97346718, 538.77233077, 2.95596242, 1.00059879, 353.04342651, 0.0000, 90.7000, 6.4100
256, 13.26172, 34199.00, 46.00, 116.61295560, 39.97351632, 538.46888878, 2.95966721, 1.00418198, 353.05010986, 0.0000, 90.7000, 6.4100
257, 13.31250, 34199.00, 46.00, 116.61294776, 39.97356563, 538.16468330, 2.96333218, 1.00738227, 353.05685425, 0.0000, 90.7000, 6.4100
258, 13.36719, 34199.00, 46.00, 116.61293998, 39.97361454, 537.86336779, 2.96691179, 1.01016986, 353.06353760, 0.0000, 90.7000, 6.4100
259, 13.41797, 34199.00, 46.00, 116.61293213, 39.97366393, 537.55947091, 2.97047281, 1.01259661, 353.07034302, 0.0000, 90.7000, 6.4100
260, 13.47266, 34199.00, 46.00, 116.61292428, 39.97371343, 537.25529719, 2.97398472, 1.01464462, 353.07717896, 0.0000, 90.7000, 6.4100
261, 13.52344, 34199.00, 46.00, 116.61291645, 39.97376273, 536.95264900, 2.97742581, 1.01630986, 353.08407593, 0.0000, 90.7000, 6.4100
262, 13.57422, 34199.00, 46.00, 116.61290866, 39.97381185, 536.65152127, 2.98079729, 1.01759815, 353.09094238, 0.0000, 90.7000, 6.4100
263, 13.62891, 34199.00, 46.00, 116.61290074, 39.97386185, 536.34538007, 2.98417020, 1.01853633, 353.09793091, 0.0000, 90.7000, 6.4100
264, 13.67969, 34199.00, 46.00, 116.61289296, 39.97391101, 536.04473221, 2.98743033, 1.01910090, 353.10479736, 0.0000, 90.7000, 6.4100
265, 13.73438, 34199.00, 46.00, 116.61288531, 39.97395936, 535.74935095, 2.99057889, 1.01931322, 353.11160278, 0.0000, 90.7000, 6.4100
266, 13.78516, 34199.00, 46.00, 116.61287743, 39.97400917, 535.44550190, 2.99376202, 1.01918125, 353.11859131, 0.0000, 90.7000, 6.4100
267, 13.83984, 34199.00, 46.00, 116.61286974, 39.97405781, 535.14906250, 2.99681377, 1.01871800, 353.12539673, 0.0000, 90.7000, 6.4100
268, 13.89453, 34199.00, 46.00, 116.61286160, 39.97410936, 534.83531330, 2.99998569, 1.01786864, 353.13262939, 0.0000, 90.7000, 6.4100
269, 13.94922, 34199.00, 46.00, 116.61285349, 39.97416082, 534.52249509, 3.00309515, 1.01666141, 353.13983154, 0.0000, 90.7000, 6.4100
270, 14.00391, 34199.00, 46.00, 116.61284537, 39.97421233, 534.20980258, 3.00615454, 1.01510441, 353.14706421, 0.0000, 90.7000, 6.4100
271, 14.05469, 34199.00, 46.00, 116.61283736, 39.97426315, 533.90157651, 3.00912452, 1.01323140, 353.15411377, 0.0000, 90.7000, 6.4100
272, 14.11328, 34199.00, 46.00, 116.61282934, 39.97431411, 533.59293532, 3.01205587, 1.01102412, 353.16116333, 0.0000, 90.7000, 6.4100
273, 14.16797, 34199.00, 46.00, 116.61282079, 39.97436841, 533.26442845, 3.01512814, 1.00831831, 353.16870117, 0.0000, 90.7000, 6.4100
274, 14.21875, 34199.00, 46.00, 116.61281302, 39.97441785, 532.96571780, 3.01788044, 1.00554645, 353.17547607, 0.0000, 90.7000, 6.4100
275, 14.27344, 34199.00, 46.00, 116.61280530, 39.97446701, 532.66898626, 3.02057195, 1.00250173, 353.18218994, 0.0000, 90.7000, 6.4100
276, 14.32422, 34199.00, 46.00, 116.61279756, 39.97451630, 532.37181600, 3.02322483, 0.99917060, 353.18887329, 0.0000, 90.7000, 6.4100
277, 14.37891, 34199.00, 46.00, 116.61278987, 39.97456534, 532.07647625, 3.02581954, 0.99558604, 353.19549561, 0.0000, 90.7000, 6.4100
278, 14.42969, 34199.00, 46.00, 116.61278207, 39.97461514, 531.77693566, 3.02840543, 0.99167478, 353.20217896, 0.0000, 90.7000, 6.4100
279, 14.48047, 34199.00, 46.00, 116.61277441, 39.97466399, 531.48334553, 3.03089499, 0.98758072, 353.20867920, 0.0000, 90.7000, 6.4100
280, 14.53516, 34199.00, 46.00, 116.61276674, 39.97471303, 531.18895201, 3.03334379, 0.98322231, 353.21514893, 0.0000, 90.7000, 6.4100
281, 14.58594, 34199.00, 46.00, 116.61275878, 39.97476389, 530.88396372, 3.03582740, 0.97844332, 353.22177124, 0.0000, 90.7000, 6.4100
282, 14.64063, 34199.00, 46.00, 116.61275098, 39.97481380, 530.58498364, 3.03820944, 0.97350758, 353.22824097, 0.0000, 90.7000, 6.4100
283, 14.69531, 34199.00, 46.00, 116.61274315, 39.97486397, 530.28474484, 3.04054594, 0.96830797, 353.23464966, 0.0000, 90.7000, 6.4100
284, 14.75000, 34199.00, 46.00, 116.61273506, 39.97491576, 529.97516269, 3.04289341, 0.96269643, 353.24118042, 0.0000, 90.7000, 6.4100
285, 14.80469, 34199.00, 46.00, 116.61272698, 39.97496756, 529.66578891, 3.04517460, 0.95684284, 353.24768066, 0.0000, 90.7000, 6.4100
286, 14.85938, 34199.00, 46.00, 116.61271895, 39.97501911, 529.35830160, 3.04737544, 0.95079100, 353.25399780, 0.0000, 90.7000, 6.4100
287, 14.91406, 34199.00, 46.00, 116.61271098, 39.97507032, 529.05310579, 3.04949331, 0.94455874, 353.26025391, 0.0000, 90.7000, 6.4100
288, 14.96875, 34199.00, 46.00, 116.61270296, 39.97512180, 528.74659297, 3.05154920, 0.93807960, 353.26641846, 0.0000, 90.7000, 6.4100
289, 15.02344, 34199.00, 46.00, 116.61269508, 39.97517248, 528.44519758, 3.05350018, 0.93150413, 353.27243042, 0.0000, 90.7000, 6.4100
290, 15.07422, 34199.00, 46.00, 116.61268728, 39.97522273, 528.14657203, 3.05536222, 0.92479318, 353.27825928, 0.0000, 90.7000, 6.4100
291, 15.12891, 34199.00, 46.00, 116.61267967, 39.97527173, 527.85567585, 3.05710697, 0.91807479, 353.28390503, 0.0000, 90.7000, 6.4100
292, 15.17969, 34199.00, 46.00, 116.61267205, 39.97532080, 527.56463534, 3.05878305, 0.91118163, 353.28942871, 0.0000, 90.7000, 6.4100
293, 15.23438, 34199.00, 46.00, 116.61266404, 39.97537246, 527.25848296, 3.06047106, 0.90375042, 353.29513550, 0.0000, 90.7000, 6.4100
294, 15.28906, 34199.00, 46.00, 116.61265624, 39.97542283, 526.96030238, 3.06203842, 0.89634168, 353.30062866, 0.0000, 90.7000, 6.4100
295, 15.33984, 34199.00, 46.00, 116.61264862, 39.97547202, 526.66933406, 3.06349707, 0.88895935, 353.30590820, 0.0000, 90.7000, 6.4100
296, 15.39453, 34199.00, 46.00, 116.61264096, 39.97552149, 526.37694029, 3.06488967, 0.88139361, 353.31109619, 0.0000, 90.7000, 6.4100
297, 15.44531, 34199.00, 46.00, 116.61263331, 39.97557094, 526.08489102, 3.06620741, 0.87369370, 353.31622314, 0.0000, 90.7000, 6.4100
298, 15.50000, 34199.00, 46.00, 116.61262564, 39.97562058, 525.79196126, 3.06745625, 0.86583424, 353.32122803, 0.0000, 90.7000, 6.4100
299, 15.55469, 34199.00, 46.00, 116.61261752, 39.97567317, 525.48189351, 3.06869960, 0.85737324, 353.32641602, 0.0000, 90.7000, 6.4100
300, 15.60938, 34199.00, 46.00, 116.61260970, 39.97572381, 525.18356678, 3.06981778, 0.84910011, 353.33132935, 0.0000, 90.7000, 6.4100
301, 15.66406, 34199.00, 46.00, 116.61260187, 39.97577462, 524.88448033, 3.07085705, 0.84068292, 353.33615112, 0.0000, 90.7000, 6.4100
302, 15.71875, 34199.00, 46.00, 116.61259410, 39.97582501, 524.58806384, 3.07179976, 0.83222735, 353.34082031, 0.0000, 90.7000, 6.4100
303, 15.77344, 34199.00, 46.00, 116.61258621, 39.97587622, 524.28706656, 3.07265878, 0.82352746, 353.34542847, 0.0000, 90.7000, 6.4100
304, 15.82422, 34199.00, 46.00, 116.61257854, 39.97592607, 523.99428641, 3.07338977, 0.81496394, 353.34985352, 0.0000, 90.7000, 6.4100
305, 15.87891, 34199.00, 46.00, 116.61257083, 39.97597619, 523.70015518, 3.07401156, 0.80626649, 353.35415649, 0.0000, 90.7000, 6.4100
306, 15.93359, 34199.00, 46.00, 116.61256292, 39.97602761, 523.39854902, 3.07451844, 0.79725337, 353.35848999, 0.0000, 90.7000, 6.4100
307, 15.98828, 34199.00, 46.00, 116.61255512, 39.97607840, 523.10085548, 3.07488251, 0.78826940, 353.36264038, 0.0000, 90.7000, 6.4100
308, 16.04297, 34199.00, 46.00, 116.61254721, 39.97612991, 522.79919178, 3.07510495, 0.77908456, 353.36669922, 0.0000, 90.7000, 6.4100
309, 16.10547, 34199.00, 46.00, 116.61253755, 39.97619289, 522.43059033, 3.07516813, 0.76775289, 353.37158203, 0.0000, 90.7000, 6.4100
310, 16.15625, 34199.00, 46.00, 116.61252979, 39.97624345, 522.13487423, 3.07506013, 0.75858694, 353.37533569, 0.0000, 90.7000, 6.4100
311, 16.21094, 34199.00, 46.00, 116.61252224, 39.97629272, 521.84685812, 3.07482147, 0.74960327, 353.37893677, 0.0000, 90.7000, 6.4100
312, 16.26172, 34199.00, 46.00, 116.61251468, 39.97634210, 521.55834334, 3.07445955, 0.74054778, 353.38241577, 0.0000, 90.7000, 6.4100
313, 16.31641, 34199.00, 46.00, 116.61250713, 39.97639144, 521.27022846, 3.07398748, 0.73145521, 353.38580322, 0.0000, 90.7000, 6.4100
314, 16.37109, 34199.00, 46.00, 116.61249917, 39.97644344, 520.96674218, 3.07338357, 0.72183043, 353.38925171, 0.0000, 90.7000, 6.4100
315, 16.42188, 34199.00, 46.00, 116.61249168, 39.97649247, 520.68073559, 3.07273293, 0.71271896, 353.39239502, 0.0000, 90.7000, 6.4100
316, 16.47266, 34199.00, 46.00, 116.61248417, 39.97654157, 520.39437877, 3.07201648, 0.70356059, 353.39544678, 0.0000, 90.7000, 6.4100
317, 16.52734, 34199.00, 46.00, 116.61247671, 39.97659048, 520.10932890, 3.07125735, 0.69441390, 353.39840698, 0.0000, 90.7000, 6.4100
318, 16.57813, 34199.00, 46.00, 116.61246913, 39.97664013, 519.82002702, 3.07045174, 0.68510211, 353.40130615, 0.0000, 90.7000, 6.4100
319, 16.63281, 34199.00, 46.00, 116.61246162, 39.97668935, 519.53333704, 3.06963062, 0.67584968, 353.40408325, 0.0000, 90.7000, 6.4100
320, 16.68359, 34199.00, 46.00, 116.61245407, 39.97673887, 519.24501025, 3.06879139, 0.66652519, 353.40676880, 0.0000, 90.7000, 6.4100
321, 16.73828, 34199.00, 46.00, 116.61244643, 39.97678896, 518.95340668, 3.06793785, 0.65707856, 353.40942383, 0.0000, 90.7000, 6.4100
322, 16.78906, 34199.00, 46.00, 116.61243890, 39.97683845, 518.66540987, 3.06709361, 0.64773393, 353.41192627, 0.0000, 90.7000, 6.4100
323, 16.84375, 34199.00, 46.00, 116.61243138, 39.97688779, 518.37836039, 3.06625199, 0.63841146, 353.41433716, 0.0000, 90.7000, 6.4100
324, 16.89453, 34199.00, 46.00, 116.61242385, 39.97693734, 518.09016518, 3.06540513, 0.62904537, 353.41668701, 0.0000, 90.7000, 6.4100
325, 16.95313, 34199.00, 46.00, 116.61241620, 39.97698758, 517.79801827, 3.06453443, 0.61954540, 353.41897583, 0.0000, 90.7000, 6.4100
326, 17.00781, 34199.00, 46.00, 116.61240797, 39.97704173, 517.48320017, 3.06357145, 0.60930777, 353.42132568, 0.0000, 90.7000, 6.4100
327, 17.05859, 34199.00, 46.00, 116.61240060, 39.97709026, 517.20114142, 3.06267142, 0.60013920, 353.42337036, 0.0000, 90.7000, 6.4100
328, 17.10938, 34199.00, 46.00, 116.61239318, 39.97713914, 516.91704956, 3.06171536, 0.59090841, 353.42535400, 0.0000, 90.7000, 6.4100
329, 17.16406, 34199.00, 46.00, 116.61238572, 39.97718827, 516.63155481, 3.06068897, 0.58163917, 353.42724609, 0.0000, 90.7000, 6.4100
330, 17.21484, 34199.00, 46.00, 116.61237827, 39.97723737, 516.34630704, 3.05958128, 0.57238972, 353.42907715, 0.0000, 90.7000, 6.4100
331, 17.26953, 34199.00, 46.00, 116.61237069, 39.97728733, 516.05602652, 3.05835652, 0.56298751, 353.43084717, 0.0000, 90.7000, 6.4100
332, 17.32422, 34199.00, 46.00, 116.61236285, 39.97733906, 515.75556713, 3.05697179, 0.55326986, 353.43261719, 0.0000, 90.7000, 6.4100
333, 17.37500, 34199.00, 46.00, 116.61235553, 39.97738738, 515.47493396, 3.05556583, 0.54421234, 353.43420410, 0.0000, 90.7000, 6.4100
334, 17.42578, 34199.00, 46.00, 116.61234818, 39.97743594, 515.19290677, 3.05404019, 0.53512746, 353.43572998, 0.0000, 90.7000, 6.4100
335, 17.48047, 34199.00, 46.00, 116.61234089, 39.97748410, 514.91319887, 3.05242133, 0.52613622, 353.43716431, 0.0000, 90.7000, 6.4100
336, 17.53125, 34199.00, 46.00, 116.61233326, 39.97753452, 514.62045424, 3.05061960, 0.51675016, 353.43859863, 0.0000, 90.7000, 6.4100
337, 17.58203, 34199.00, 46.00, 116.61232588, 39.97758327, 514.33732231, 3.04878688, 0.50769573, 353.43991089, 0.0000, 90.7000, 6.4100
338, 17.63672, 34199.00, 46.00, 116.61231842, 39.97763262, 514.05073064, 3.04685926, 0.49855518, 353.44119263, 0.0000, 90.7000, 6.4100
339, 17.68750, 34199.00, 46.00, 116.61231098, 39.97768184, 513.76485355, 3.04488397, 0.48946556, 353.44238281, 0.0000, 90.7000, 6.4100
340, 17.74219, 34199.00, 46.00, 116.61230355, 39.97773107, 513.47894147, 3.04288125, 0.48040447, 353.44354248, 0.0000, 90.7000, 6.4100
341, 17.79297, 34199.00, 46.00, 116.61229615, 39.97778001, 513.19465544, 3.04088521, 0.47142261, 353.44461060, 0.0000, 90.7000, 6.4100
342, 17.84375, 34199.00, 46.00, 116.61228879, 39.97782881, 512.91115972, 3.03890777, 0.46249759, 353.44564819, 0.0000, 90.7000, 6.4100
343, 17.89844, 34199.00, 46.00, 116.61228137, 39.97787798, 512.62545327, 3.03694558, 0.45353642, 353.44665527, 0.0000, 90.7000, 6.4100
344, 17.94922, 34199.00, 46.00, 116.61227394, 39.97792721, 512.33936753, 3.03502464, 0.44459540, 353.44760132, 0.0000, 90.7000, 6.4100
345, 18.00391, 34199.00, 46.00, 116.61226650, 39.97797655, 512.05257473, 3.03315020, 0.43566734, 353.44845581, 0.0000, 90.7000, 6.4100
346, 18.05469, 34199.00, 46.00, 116.61225901, 39.97802624, 511.76368284, 3.03132486, 0.42671216, 353.44927979, 0.0000, 90.7000, 6.4100
347, 18.10938, 34199.00, 46.00, 116.61225152, 39.97807591, 511.47484746, 3.02956700, 0.41779476, 353.45010376, 0.0000, 90.7000, 6.4100
348, 18.16406, 34199.00, 46.00, 116.61224392, 39.97812640, 511.18115579, 3.02784991, 0.40876618, 353.45083618, 0.0000, 90.7000, 6.4100
349, 18.21484, 34199.00, 46.00, 116.61223647, 39.97817586, 510.89339290, 3.02622843, 0.39996061, 353.45156860, 0.0000, 90.7000, 6.4100
350, 18.26953, 34199.00, 46.00, 116.61222891, 39.97822605, 510.60127382, 3.02463460, 0.39105952, 353.45223999, 0.0000, 90.7000, 6.4100
351, 18.32422, 34199.00, 46.00, 116.61222112, 39.97827781, 510.29994650, 3.02302790, 0.38192055, 353.45288086, 0.0000, 90.7000, 6.4100
352, 18.38281, 34199.00, 46.00, 116.61221287, 39.97833268, 509.98040007, 3.02134156, 0.37227914, 353.45355225, 0.0000, 90.7000, 6.4100
353, 18.43750, 34199.00, 46.00, 116.61220532, 39.97838289, 509.68795182, 3.01978803, 0.36349866, 353.45410156, 0.0000, 90.7000, 6.4100
354, 18.48828, 34199.00, 46.00, 116.61219777, 39.97843304, 509.39570020, 3.01820064, 0.35476735, 353.45458984, 0.0000, 90.7000, 6.4100
355, 18.54297, 34199.00, 46.00, 116.61219034, 39.97848248, 509.10755516, 3.01658225, 0.34620348, 353.45507813, 0.0000, 90.7000, 6.4100
356, 18.59375, 34199.00, 46.00, 116.61218278, 39.97853281, 508.81408547, 3.01485562, 0.33752388, 353.45553589, 0.0000, 90.7000, 6.4100
357, 18.64844, 34199.00, 46.00, 116.61217525, 39.97858291, 508.52190163, 3.01304221, 0.32892546, 353.45593262, 0.0000, 90.7000, 6.4100
358, 18.70313, 34199.00, 46.00, 116.61216770, 39.97863318, 508.22859868, 3.01111412, 0.32034150, 353.45632935, 0.0000, 90.7000, 6.4100
359, 18.75391, 34199.00, 46.00, 116.61216032, 39.97868232, 507.94181715, 3.00912356, 0.31199244, 353.45663452, 0.0000, 90.7000, 6.4100
360, 18.80859, 34199.00, 46.00, 116.61215272, 39.97873298, 507.64606129, 3.00696301, 0.30342904, 353.45697021, 0.0000, 90.7000, 6.4100
361, 18.85938, 34199.00, 46.00, 116.61214532, 39.97878229, 507.35806429, 3.00476766, 0.29513830, 353.45727539, 0.0000, 90.7000, 6.4100
362, 18.91406, 34199.00, 46.00, 116.61213797, 39.97883129, 507.07179297, 3.00251245, 0.28694493, 353.45751953, 0.0000, 90.7000, 6.4100
363, 18.96875, 34199.00, 46.00, 116.61213042, 39.97888160, 506.77774490, 3.00014496, 0.27857745, 353.45779419, 0.0000, 90.7000, 6.4100
364, 19.01953, 34199.00, 46.00, 116.61212294, 39.97893145, 506.48621872, 2.99778104, 0.27033272, 353.45800781, 0.0000, 90.7000, 6.4100
365, 19.07422, 34199.00, 46.00, 116.61211551, 39.97898099, 506.19642634, 2.99544430, 0.26218876, 353.45819092, 0.0000, 90.7000, 6.4100
366, 19.12891, 34199.00, 46.00, 116.61210782, 39.97903234, 505.89589395, 2.99306130, 0.25379685, 353.45837402, 0.0000, 90.7000, 6.4100
367, 19.17969, 34199.00, 46.00, 116.61210045, 39.97908146, 505.60825759, 2.99084044, 0.24581996, 353.45852661, 0.0000, 90.7000, 6.4100
368, 19.23047, 34199.00, 46.00, 116.61209320, 39.97912989, 505.32450582, 2.98872256, 0.23800588, 353.45864868, 0.0000, 90.7000, 6.4100
369, 19.28516, 34199.00, 46.00, 116.61208582, 39.97917916, 505.03571591, 2.98665595, 0.23010930, 353.45880127, 0.0000, 90.7000, 6.4100
370, 19.33984, 34199.00, 46.00, 116.61207806, 39.97923094, 504.73200192, 2.98458791, 0.22186942, 353.45886230, 0.0000, 90.7000, 6.4100
371, 19.39063, 34199.00, 46.00, 116.61207067, 39.97928026, 504.44258433, 2.98272228, 0.21408552, 353.45898438, 0.0000, 90.7000, 6.4100
372, 19.44531, 34199.00, 46.00, 116.61206329, 39.97932953, 504.15331249, 2.98096561, 0.20637459, 353.45901489, 0.0000, 90.7000, 6.4100
373, 19.50000, 34199.00, 46.00, 116.61205587, 39.97937915, 503.86186556, 2.97930765, 0.19868630, 353.45907593, 0.0000, 90.7000, 6.4100
374, 19.55469, 34199.00, 46.00, 116.61204808, 39.97943113, 503.55633143, 2.97768974, 0.19073097, 353.45910645, 0.0000, 90.7000, 6.4100
375, 19.60547, 34199.00, 46.00, 116.61204066, 39.97948074, 503.26458312, 2.97624612, 0.18327118, 353.45913696, 0.0000, 90.7000, 6.4100
376, 19.66016, 34199.00, 46.00, 116.61203316, 39.97953086, 502.96966852, 2.97486925, 0.17622308, 353.45916748, 0.0000, 90.7000, 6.4100
377, 19.71484, 34199.00, 46.00, 116.61202572, 39.97958057, 502.67696612, 2.97360063, 0.16881096, 353.45919800, 0.0000, 90.7000, 6.4100
378, 19.76953, 34199.00, 46.00, 116.61201782, 39.97963337, 502.36591809, 2.97231245, 0.16067424, 353.45913696, 0.0000, 90.7000, 6.4100
379, 19.83203, 34199.00, 46.00, 116.61201004, 39.97968539, 502.05929749, 2.97106314, 0.15261419, 353.45907593, 0.0000, 90.7000, 6.4100
380, 19.88672, 34199.00, 46.00, 116.61200138, 39.97974330, 501.71780258, 2.96965075, 0.14364624, 353.45904541, 0.0000, 90.7000, 6.4100
381, 19.93750, 34199.00, 46.00, 116.61199391, 39.97979325, 501.42303637, 2.96838117, 0.13592349, 353.45898438, 0.0000, 90.7000, 6.4100
382, 19.99219, 34199.00, 46.00, 116.61198651, 39.97984275, 501.13075310, 2.96704817, 0.12828584, 353.45892334, 0.0000, 90.7000, 6.4100
383, 20.04688, 34199.00, 46.00, 116.61197898, 39.97989308, 500.83345807, 2.96559787, 0.12054206, 353.45883179, 0.0000, 90.7000, 6.4100
384, 20.09766, 34199.00, 46.00, 116.61197147, 39.97994334, 500.53641434, 2.96404004, 0.11283144, 353.45870972, 0.0000, 90.7000, 6.4100
385, 20.15234, 34199.00, 46.00, 116.61196420, 39.97999197, 500.24884138, 2.96242642, 0.10539328, 353.45858765, 0.0000, 90.7000, 6.4100
386, 20.20703, 34199.00, 46.00, 116.61195667, 39.98004239, 499.95057801, 2.96064782, 0.09770947, 353.45843506, 0.0000, 90.7000, 6.4100
387, 20.25781, 34199.00, 46.00, 116.61194924, 39.98009205, 499.65664497, 2.95880699, 0.09016896, 353.45831299, 0.0000, 90.7000, 6.4100
388, 20.31641, 34199.00, 46.00, 116.61194123, 39.98014567, 499.33907799, 2.95674706, 0.08205642, 353.45809937, 0.0000, 90.7000, 6.4100
389, 20.37109, 34199.00, 46.00, 116.61193353, 39.98019722, 499.03356160, 2.95473647, 0.07429057, 353.45794678, 0.0000, 90.7000, 6.4100
390, 20.42578, 34199.00, 46.00, 116.61192591, 39.98024823, 498.73109479, 2.95275855, 0.06663953, 353.45773315, 0.0000, 90.7000, 6.4100
391, 20.47656, 34199.00, 46.00, 116.61191849, 39.98029789, 498.43646176, 2.95087266, 0.05922344, 353.45751953, 0.0000, 90.7000, 6.4100
392, 20.53125, 34199.00, 46.00, 116.61191112, 39.98034720, 498.14372381, 2.94906497, 0.05189361, 353.45727539, 0.0000, 90.7000, 6.4100
393, 20.58594, 34199.00, 46.00, 116.61190347, 39.98039840, 497.83961891, 2.94727659, 0.04432100, 353.45703125, 0.0000, 90.7000, 6.4100
394, 20.63672, 34199.00, 46.00, 116.61189612, 39.98044763, 497.54698999, 2.94565797, 0.03707394, 353.45675659, 0.0000, 90.7000, 6.4100
395, 20.69141, 34199.00, 46.00, 116.61188861, 39.98049786, 497.24829631, 2.94412112, 0.02971961, 353.45651245, 0.0000, 90.7000, 6.4100
396, 20.74609, 34199.00, 46.00, 116.61188107, 39.98054833, 496.94789422, 2.94270182, 0.02236746, 353.45623779, 0.0000, 90.7000, 6.4100
397, 20.79688, 34199.00, 46.00, 116.61187366, 39.98059799, 496.65222136, 2.94143295, 0.01517334, 353.45590210, 0.0000, 90.7000, 6.4100
398, 20.85156, 34199.00, 46.00, 116.61186636, 39.98064681, 496.36132573, 2.94031024, 0.00813962, 353.45559692, 0.0000, 90.7000, 6.4100
399, 20.90234, 34199.00, 46.00, 116.61185904, 39.98069582, 496.06914894, 2.93930864, 0.00112037, 353.45526123, 0.0000, 90.7000, 6.4100
400, 20.95313, 34199.00, 46.00, 116.61185174, 39.98074470, 495.77754067, 2.93843484, -0.00584132, 353.45486450, 0.0000, 90.7000, 6.4100
401, 21.00781, 34199.00, 46.00, 116.61184444, 39.98079359, 495.48574315, 2.93768191, -0.01276023, 353.45449829, 0.0000, 90.7000, 6.4100
402, 21.05859, 34199.00, 46.00, 116.61183709, 39.98084278, 495.19198483, 2.93703842, -0.01967597, 353.45413208, 0.0000, 90.7000, 6.4100
403, 21.11328, 34199.00, 46.00, 116.61182958, 39.98089306, 494.89149525, 2.93648410, -0.02669989, 353.45370483, 0.0000, 90.7000, 6.4100
404, 21.16797, 34199.00, 46.00, 116.61182222, 39.98094234, 494.59682851, 2.93602085, -0.03353750, 353.45324707, 0.0000, 90.7000, 6.4100
405, 21.22656, 34199.00, 46.00, 116.61181407, 39.98099691, 494.27038094, 2.93557215, -0.04105142, 353.45272827, 0.0000, 90.7000, 6.4100
406, 21.27734, 34199.00, 46.00, 116.61180667, 39.98104645, 493.97386711, 2.93519092, -0.04782109, 353.45227051, 0.0000, 90.7000, 6.4100
407, 21.32813, 34199.00, 46.00, 116.61179929, 39.98109587, 493.67789056, 2.93480754, -0.05452535, 353.45172119, 0.0000, 90.7000, 6.4100
408, 21.38281, 34199.00, 46.00, 116.61179192, 39.98114523, 493.38211430, 2.93439460, -0.06116780, 353.45120239, 0.0000, 90.7000, 6.4100
409, 21.43750, 34199.00, 46.00, 116.61178434, 39.98119598, 493.07792249, 2.93391228, -0.06794047, 353.45065308, 0.0000, 90.7000, 6.4100
410, 21.48828, 34199.00, 46.00, 116.61177713, 39.98124426, 492.78835968, 2.93337893, -0.07433201, 353.45010376, 0.0000, 90.7000, 6.4100
411, 21.53906, 34199.00, 46.00, 116.61176986, 39.98129287, 492.49667542, 2.93275523, -0.08071245, 353.44952393, 0.0000, 90.7000, 6.4100
412, 21.59375, 34199.00, 46.00, 116.61176231, 39.98134341, 492.19331547, 2.93200827, -0.08728649, 353.44888306, 0.0000, 90.7000, 6.4100
413, 21.64844, 34199.00, 46.00, 116.61175492, 39.98139288, 491.89618828, 2.93118310, -0.09366506, 353.44824219, 0.0000, 90.7000, 6.4100
414, 21.69922, 34199.00, 46.00, 116.61174746, 39.98144279, 491.59629742, 2.93026948, -0.10003892, 353.44757080, 0.0000, 90.7000, 6.4100
415, 21.75391, 34199.00, 46.00, 116.61173988, 39.98149352, 491.29135824, 2.92927861, -0.10645227, 353.44686890, 0.0000, 90.7000, 6.4100
416, 21.80859, 34199.00, 46.00, 116.61173235, 39.98154396, 490.98799171, 2.92826366, -0.11276679, 353.44610596, 0.0000, 90.7000, 6.4100
417, 21.85938, 34199.00, 46.00, 116.61172489, 39.98159387, 490.68773642, 2.92726421, -0.11894818, 353.44534302, 0.0000, 90.7000, 6.4100
418, 21.91406, 34199.00, 46.00, 116.61171753, 39.98164313, 490.39116441, 2.92630863, -0.12498418, 353.44458008, 0.0000, 90.7000, 6.4100
419, 21.96875, 34199.00, 46.00, 116.61171015, 39.98169246, 490.09412837, 2.92540479, -0.13096233, 353.44375610, 0.0000, 90.7000, 6.4100
420, 22.01953, 34199.00, 46.00, 116.61170260, 39.98174296, 489.78979957, 2.92455602, -0.13701408, 353.44293213, 0.0000, 90.7000, 6.4100
421, 22.07422, 34199.00, 46.00, 116.61169524, 39.98179224, 489.49274984, 2.92381573, -0.14284714, 353.44207764, 0.0000, 90.7000, 6.4100
422, 22.12891, 34199.00, 46.00, 116.61168746, 39.98184429, 489.17879439, 2.92314100, -0.14893447, 353.44113159, 0.0000, 90.7000, 6.4100
423, 22.18359, 34199.00, 46.00, 116.61167966, 39.98189642, 488.86422396, 2.92258430, -0.15495062, 353.44021606, 0.0000, 90.7000, 6.4100
424, 22.24219, 34199.00, 46.00, 116.61167151, 39.98195095, 488.53505937, 2.92213631, -0.16115439, 353.43914795, 0.0000, 90.7000, 6.4100
425, 22.29688, 34199.00, 46.00, 116.61166397, 39.98200136, 488.23056760, 2.92184520, -0.16681057, 353.43817139, 0.0000, 90.7000, 6.4100
426, 22.35156, 34199.00, 46.00, 116.61165631, 39.98205255, 487.92119239, 2.92167163, -0.17247267, 353.43713379, 0.0000, 90.7000, 6.4100
427, 22.40625, 34199.00, 46.00, 116.61164873, 39.98210321, 487.61490057, 2.92161798, -0.17799115, 353.43606567, 0.0000, 90.7000, 6.4100
428, 22.46094, 34199.00, 46.00, 116.61164116, 39.98215385, 487.30864146, 2.92167926, -0.18342389, 353.43499756, 0.0000, 90.7000, 6.4100
429, 22.51563, 34199.00, 46.00, 116.61163369, 39.98220379, 487.00641256, 2.92184997, -0.18869860, 353.43389893, 0.0000, 90.7000, 6.4100
430, 22.57031, 34199.00, 46.00, 116.61162593, 39.98225560, 486.69278020, 2.92213273, -0.19407798, 353.43270874, 0.0000, 90.7000, 6.4100
431, 22.62500, 34199.00, 46.00, 116.61161822, 39.98230715, 486.38059425, 2.92250681, -0.19933806, 353.43151855, 0.0000, 90.7000, 6.4100
432, 22.67969, 34199.00, 46.00, 116.61161033, 39.98235986, 486.06129305, 2.92296219, -0.20461780, 353.43026733, 0.0000, 90.7000, 6.4100
433, 22.73438, 34199.00, 46.00, 116.61160277, 39.98241034, 485.75533825, 2.92344236, -0.20957607, 353.42904663, 0.0000, 90.7000, 6.4100
434, 22.78516, 34199.00, 46.00, 116.61159532, 39.98246011, 485.45356133, 2.92393446, -0.21436998, 353.42776489, 0.0000, 90.7000, 6.4100
435, 22.83984, 34199.00, 46.00, 116.61158794, 39.98250941, 485.15460371, 2.92441535, -0.21902138, 353.42654419, 0.0000, 90.7000, 6.4100
436, 22.89453, 34199.00, 46.00, 116.61158049, 39.98255915, 484.85286348, 2.92487097, -0.22361316, 353.42520142, 0.0000, 90.7000, 6.4100
437, 22.94531, 34199.00, 46.00, 116.61157307, 39.98260863, 484.55256854, 2.92527342, -0.22807676, 353.42388916, 0.0000, 90.7000, 6.4100
438, 23.00000, 34199.00, 46.00, 116.61156568, 39.98265798, 484.25307665, 2.92560863, -0.23241957, 353.42254639, 0.0000, 90.7000, 6.4100
439, 23.05078, 34199.00, 46.00, 116.61155833, 39.98270703, 483.95525563, 2.92586517, -0.23662081, 353.42120361, 0.0000, 90.7000, 6.4100
440, 23.10547, 34199.00, 46.00, 116.61155088, 39.98275675, 483.65331291, 2.92604399, -0.24075326, 353.41979980, 0.0000, 90.7000, 6.4100
441, 23.15625, 34199.00, 46.00, 116.61154350, 39.98280601, 483.35409714, 2.92614102, -0.24471121, 353.41833496, 0.0000, 90.7000, 6.4100
442, 23.21094, 34199.00, 46.00, 116.61153607, 39.98285557, 483.05300082, 2.92616868, -0.24853081, 353.41693115, 0.0000, 90.7000, 6.4100
443, 23.26563, 34199.00, 46.00, 116.61152820, 39.98290806, 482.73399414, 2.92613912, -0.25234273, 353.41534424, 0.0000, 90.7000, 6.4100
444, 23.32031, 34199.00, 46.00, 116.61152073, 39.98295784, 482.43140579, 2.92608547, -0.25528011, 353.41381836, 0.0000, 90.7000, 6.4100
445, 23.37109, 34199.00, 46.00, 116.61151329, 39.98300744, 482.12978887, 2.92607737, -0.25803405, 353.41232300, 0.0000, 90.7000, 6.4100
446, 23.42578, 34199.00, 46.00, 116.61150577, 39.98305756, 481.82496717, 2.92612839, -0.26182359, 353.41073608, 0.0000, 90.7000, 6.4100
