Frame, Timestamp, Time_of_day, Day_of_year, Longitude, Latitude, Altitude, Pitch, Roll, Yaw, Rain_ratio, Visibility, Snow_now
6, 0.05859, 5637.00, 23.00, 116.61498894, 39.96103786, 611.27865982, 5.49186516, 0.20611033, 353.06759644, 0.0000, 90.1929, 2.2400
7, 0.11841, 5637.00, 23.00, 116.61497956, 39.96109471, 610.97468031, 5.52389431, 0.23827444, 353.05999756, 0.0000, 90.1729, 2.2400
8, 0.17261, 5637.00, 23.00, 116.61497100, 39.96114664, 610.69978319, 5.55168724, 0.26579729, 353.05270386, 0.0000, 90.1545, 2.2400
9, 0.22925, 5637.00, 23.00, 116.61496236, 39.96119908, 610.42485970, 5.57833099, 0.29170623, 353.04495239, 0.0000, 90.1360, 2.2400
10, 0.29028, 5637.00, 23.00, 116.61495279, 39.96125715, 610.12344856, 5.60623598, 0.31816635, 353.03598022, 0.0000, 90.1155, 2.2400
11, 0.35352, 5637.00, 23.00, 116.61494290, 39.96131717, 609.81537520, 5.63338614, 0.34310421, 353.02639771, 0.0000, 90.0943, 2.2400
12, 0.41235, 5637.00, 23.00, 116.61493413, 39.96137043, 609.54485434, 5.65620708, 0.36187091, 353.01754761, 0.0000, 90.0755, 2.2400
13, 0.46851, 5637.00, 23.00, 116.61492494, 39.96142624, 609.26417962, 5.67906952, 0.37413254, 353.00796509, 0.0000, 90.0557, 2.2400
14, 0.52637, 5637.00, 23.00, 116.61491599, 39.96148064, 608.99326541, 5.70051861, 0.37756345, 352.99826050, 0.0000, 90.0365, 2.2400
15, 0.59009, 5637.00, 23.00, 116.61490618, 39.96154029, 608.69918955, 5.72339678, 0.37266192, 352.98730469, 0.0000, 90.0154, 2.2400
16, 0.64038, 5637.00, 23.00, 116.61489858, 39.96158646, 608.47378653, 5.74066114, 0.36640775, 352.97872925, 0.0000, 89.9992, 2.2400
17, 0.70337, 5637.00, 23.00, 116.61488846, 39.96164802, 608.17618363, 5.76325274, 0.35729638, 352.96716309, 0.0000, 89.9774, 2.2400
18, 0.76147, 5637.00, 23.00, 116.61487923, 39.96170418, 607.90768819, 5.78363180, 0.34880692, 352.95663452, 0.0000, 89.9575, 2.2400
19, 0.82178, 5637.00, 23.00, 116.61486984, 39.96176134, 607.63724647, 5.80435896, 0.34014210, 352.94592285, 0.0000, 89.9373, 2.2400
20, 0.87744, 5637.00, 23.00, 116.61486113, 39.96181439, 607.38878766, 5.82372999, 0.33211365, 352.93600464, 0.0000, 89.9185, 2.2400
21, 0.93262, 5637.00, 23.00, 116.61485249, 39.96186699, 607.14485278, 5.84316826, 0.32418051, 352.92620850, 0.0000, 89.8999, 2.2400
22, 0.99268, 5637.00, 23.00, 116.61484329, 39.96192304, 606.88753252, 5.86407042, 0.31576517, 352.91583252, 0.0000, 89.8801, 2.2400
23, 1.05029, 5637.00, 23.00, 116.61483443, 39.96197706, 606.64208762, 5.88392925, 0.30769941, 352.90594482, 0.0000, 89.8610, 2.2400
24, 1.10425, 5637.00, 23.00, 116.61482736, 39.96202017, 606.44803025, 5.89925623, 0.30129892, 352.89807129, 0.0000, 89.8458, 2.2400
25, 1.17041, 5637.00, 23.00, 116.61481607, 39.96208897, 606.14173019, 5.92223740, 0.29116377, 352.88577271, 0.0000, 89.8214, 2.2400
26, 1.22778, 5637.00, 23.00, 116.61480672, 39.96214597, 605.89101144, 5.93955755, 0.28284711, 352.87570190, 0.0000, 89.8012, 2.2400
27, 1.28418, 5637.00, 23.00, 116.61479795, 39.96219951, 605.65811419, 5.95417881, 0.27511266, 352.86642456, 0.0000, 89.7823, 2.2400
28, 1.34399, 5637.00, 23.00, 116.61478892, 39.96225459, 605.42105641, 5.96742725, 0.26723886, 352.85705566, 0.0000, 89.7628, 2.2400
29, 1.40576, 5637.00, 23.00, 116.61477929, 39.96231338, 605.17086585, 5.97945213, 0.25893673, 352.84732056, 0.0000, 89.7420, 2.2400
30, 1.46777, 5637.00, 23.00, 116.61476951, 39.96237303, 604.91994142, 5.98935986, 0.25062788, 352.83767700, 0.0000, 89.7209, 2.2400
31, 1.52563, 5637.00, 23.00, 116.61476065, 39.96242715, 604.69478664, 5.99633694, 0.24319592, 352.82910156, 0.0000, 89.7017, 2.2400
32, 1.58350, 5637.00, 23.00, 116.61475165, 39.96248206, 604.46870872, 6.00142145, 0.23576534, 352.82067871, 0.0000, 89.6823, 2.2400
33, 1.63965, 5637.00, 23.00, 116.61474283, 39.96253596, 604.24905245, 6.00507402, 0.22858687, 352.81268311, 0.0000, 89.6632, 2.2400
34, 1.69678, 5637.00, 23.00, 116.61473419, 39.96258869, 604.03611662, 6.00888538, 0.22167724, 352.80511475, 0.0000, 89.6445, 2.2400
35, 1.75635, 5637.00, 23.00, 116.61472475, 39.96264636, 603.80547485, 6.01320505, 0.21425615, 352.79711914, 0.0000, 89.6241, 2.2400
36, 1.81274, 5637.00, 23.00, 116.61471608, 39.96269935, 603.59556794, 6.01699829, 0.20756572, 352.79006958, 0.0000, 89.6053, 2.2400
37, 1.86865, 5637.00, 23.00, 116.61470746, 39.96275199, 603.38890617, 6.02024889, 0.20104443, 352.78335571, 0.0000, 89.5866, 2.2400
38, 1.92407, 5637.00, 23.00, 116.61469885, 39.96280463, 603.18409840, 6.02247334, 0.19465207, 352.77697754, 0.0000, 89.5680, 2.2400
39, 1.98340, 5637.00, 23.00, 116.61468980, 39.96285996, 602.97083550, 6.02322054, 0.18807502, 352.77050781, 0.0000, 89.5483, 2.2400
40, 2.04004, 5637.00, 23.00, 116.61468081, 39.96291489, 602.76107331, 6.02193499, 0.18169099, 352.76446533, 0.0000, 89.5289, 2.2400
41, 2.09375, 5637.00, 23.00, 116.61467247, 39.96296587, 602.56814152, 6.01864862, 0.17589809, 352.75909424, 0.0000, 89.5108, 2.2400
42, 2.14746, 5637.00, 23.00, 116.61466413, 39.96301683, 602.37688382, 6.01311255, 0.17023678, 352.75408936, 0.0000, 89.4927, 2.2400
43, 2.20190, 5637.00, 23.00, 116.61465581, 39.96306771, 602.18753070, 6.00517845, 0.16471657, 352.74929810, 0.0000, 89.4747, 2.2400
44, 2.25610, 5637.00, 23.00, 116.61464753, 39.96311829, 602.00077135, 5.99479151, 0.15936033, 352.74484253, 0.0000, 89.4567, 2.2400
45, 2.31030, 5637.00, 23.00, 116.61463906, 39.96317007, 601.81104025, 5.98155880, 0.15401448, 352.74060059, 0.0000, 89.4383, 2.2400
46, 2.37085, 5637.00, 23.00, 116.61463077, 39.96322080, 601.62659125, 5.96610451, 0.14891513, 352.73675537, 0.0000, 89.4203, 2.2400
47, 2.42773, 5637.00, 23.00, 116.61462108, 39.96328001, 601.41287367, 5.94501686, 0.14313488, 352.73260498, 0.0000, 89.3993, 2.2400
48, 2.48193, 5637.00, 23.00, 116.61461257, 39.96333206, 601.22634360, 5.92394495, 0.13820782, 352.72930908, 0.0000, 89.3808, 2.2400
49, 2.53857, 5637.00, 23.00, 116.61460387, 39.96338526, 601.03689343, 5.90009546, 0.13332215, 352.72625732, 0.0000, 89.3620, 2.2400
50, 2.59180, 5637.00, 23.00, 116.61459567, 39.96343542, 600.85923538, 5.87559652, 0.12885390, 352.72363281, 0.0000, 89.3442, 2.2400
51, 2.64771, 5637.00, 23.00, 116.61458701, 39.96348835, 600.67274410, 5.84775448, 0.12428616, 352.72119141, 0.0000, 89.3254, 2.2400
52, 2.70361, 5637.00, 23.00, 116.61457859, 39.96353982, 600.49218537, 5.81885099, 0.11998595, 352.71914673, 0.0000, 89.3071, 2.2400
53, 2.76172, 5637.00, 23.00, 116.61456947, 39.96359562, 600.29725889, 5.78576756, 0.11548415, 352.71722412, 0.0000, 89.2873, 2.2400
54, 2.81909, 5637.00, 23.00, 116.61456083, 39.96364841, 600.11342998, 5.75318670, 0.11137579, 352.71572876, 0.0000, 89.2685, 2.2400
55, 2.87280, 5637.00, 23.00, 116.61455221, 39.96370114, 599.93030416, 5.71976852, 0.10741835, 352.71453857, 0.0000, 89.2497, 2.2400
56, 2.92505, 5637.00, 23.00, 116.61454416, 39.96375036, 599.75970784, 5.68807888, 0.10385519, 352.71371460, 0.0000, 89.2323, 2.2400
57, 2.97778, 5637.00, 23.00, 116.61453607, 39.96379984, 599.58837330, 5.65596390, 0.10039704, 352.71313477, 0.0000, 89.2146, 2.2400
58, 3.03052, 5637.00, 23.00, 116.61452792, 39.96384970, 599.41586183, 5.62355804, 0.09703846, 352.71282959, 0.0000, 89.1970, 2.2400
59, 3.08301, 5637.00, 23.00, 116.61451983, 39.96389916, 599.24470819, 5.59152794, 0.09382833, 352.71273804, 0.0000, 89.1794, 2.2400
60, 3.13745, 5637.00, 23.00, 116.61451163, 39.96394928, 599.07122755, 5.55934620, 0.09069797, 352.71289063, 0.0000, 89.1616, 2.2400
61, 3.19067, 5637.00, 23.00, 116.61450326, 39.96400048, 598.89382471, 5.52686405, 0.08762488, 352.71331787, 0.0000, 89.1433, 2.2400
62, 3.24536, 5637.00, 23.00, 116.61449492, 39.96405149, 598.71684436, 5.49499559, 0.08468693, 352.71398926, 0.0000, 89.1252, 2.2400
63, 3.29932, 5637.00, 23.00, 116.61448652, 39.96410284, 598.53836077, 5.46346664, 0.08185135, 352.71490479, 0.0000, 89.1069, 2.2400
64, 3.35327, 5637.00, 23.00, 116.61447832, 39.96415302, 598.36350748, 5.43322277, 0.07919576, 352.71600342, 0.0000, 89.0890, 2.2400
65, 3.40649, 5637.00, 23.00, 116.61447007, 39.96420343, 598.18739403, 5.40342426, 0.07664061, 352.71737671, 0.0000, 89.0711, 2.2400
66, 3.45972, 5637.00, 23.00, 116.61446183, 39.96425384, 598.01075801, 5.37421799, 0.07419546, 352.71890259, 0.0000, 89.0532, 2.2400
67, 3.51392, 5637.00, 23.00, 116.61445357, 39.96430434, 597.83319351, 5.34552574, 0.07185362, 352.72064209, 0.0000, 89.0352, 2.2400
68, 3.56860, 5637.00, 23.00, 116.61444530, 39.96435490, 597.65476488, 5.31735563, 0.06961451, 352.72259521, 0.0000, 89.0172, 2.2400
69, 3.62524, 5637.00, 23.00, 116.61443647, 39.96440891, 597.46338733, 5.28786182, 0.06733682, 352.72488403, 0.0000, 88.9979, 2.2400
70, 3.68115, 5637.00, 23.00, 116.61442801, 39.96446065, 597.27920006, 5.26011181, 0.06526096, 352.72723389, 0.0000, 88.9795, 2.2400
71, 3.73901, 5637.00, 23.00, 116.61441891, 39.96451628, 597.08023590, 5.23069668, 0.06314339, 352.72998047, 0.0000, 88.9597, 2.2400
72, 3.79272, 5637.00, 23.00, 116.61441071, 39.96456641, 596.90003614, 5.20439672, 0.06133195, 352.73263550, 0.0000, 88.9418, 2.2400
73, 3.84619, 5637.00, 23.00, 116.61440242, 39.96461712, 596.71689428, 5.17781448, 0.05959096, 352.73544312, 0.0000, 88.9237, 2.2400
74, 3.89990, 5637.00, 23.00, 116.61439411, 39.96466788, 596.53261434, 5.15102911, 0.05793650, 352.73834229, 0.0000, 88.9057, 2.2400
75, 3.95361, 5637.00, 23.00, 116.61438593, 39.96471789, 596.35011930, 5.12429428, 0.05639135, 352.74142456, 0.0000, 88.8878, 2.2400
76, 4.00684, 5637.00, 23.00, 116.61437774, 39.96476800, 596.16627658, 5.09702921, 0.05492277, 352.74456787, 0.0000, 88.8700, 2.2400
77, 4.05981, 5637.00, 23.00, 116.61436955, 39.96481804, 595.98168531, 5.06921482, 0.05353430, 352.74780273, 0.0000, 88.8522, 2.2400
78, 4.11304, 5637.00, 23.00, 116.61436140, 39.96486792, 595.79664614, 5.04081440, 0.05222494, 352.75115967, 0.0000, 88.8343, 2.2400
79, 4.16650, 5637.00, 23.00, 116.61435318, 39.96491813, 595.60925704, 5.01147795, 0.05097885, 352.75460815, 0.0000, 88.8164, 2.2400
80, 4.22095, 5637.00, 23.00, 116.61434491, 39.96496875, 595.41918362, 4.98113489, 0.04979270, 352.75817871, 0.0000, 88.7984, 2.2400
81, 4.27441, 5637.00, 23.00, 116.61433664, 39.96501927, 595.22827508, 4.95012617, 0.04867679, 352.76181030, 0.0000, 88.7804, 2.2400
82, 4.32813, 5637.00, 23.00, 116.61432837, 39.96506988, 595.03576486, 4.91844606, 0.04762354, 352.76550293, 0.0000, 88.7623, 2.2400
83, 4.38208, 5637.00, 23.00, 116.61432014, 39.96512016, 594.84314314, 4.88653278, 0.04663817, 352.76925659, 0.0000, 88.7444, 2.2400
84, 4.43677, 5637.00, 23.00, 116.61431168, 39.96517188, 594.64358853, 4.85346937, 0.04568541, 352.77313232, 0.0000, 88.7259, 2.2400
85, 4.48999, 5637.00, 23.00, 116.61430351, 39.96522187, 594.44927567, 4.82147312, 0.04482041, 352.77691650, 0.0000, 88.7081, 2.2400
86, 4.54346, 5637.00, 23.00, 116.61429535, 39.96527175, 594.25390136, 4.78965902, 0.04400893, 352.78076172, 0.0000, 88.6903, 2.2400
87, 4.59766, 5637.00, 23.00, 116.61428706, 39.96532243, 594.05380655, 4.75759029, 0.04323413, 352.78463745, 0.0000, 88.6721, 2.2400
88, 4.65112, 5637.00, 23.00, 116.61427880, 39.96537294, 593.85274257, 4.72599316, 0.04250981, 352.78854370, 0.0000, 88.6542, 2.2400
89, 4.71313, 5637.00, 23.00, 116.61426977, 39.96542813, 593.63117997, 4.69200945, 0.04176961, 352.79281616, 0.0000, 88.6345, 2.2400
90, 4.76709, 5637.00, 23.00, 116.61426102, 39.96548167, 593.41427498, 4.65964699, 0.04109901, 352.79693604, 0.0000, 88.6153, 2.2400
91, 4.82837, 5637.00, 23.00, 116.61425174, 39.96553841, 593.18226919, 4.62608719, 0.04043647, 352.80126953, 0.0000, 88.5950, 2.2400
92, 4.88184, 5637.00, 23.00, 116.61424338, 39.96558949, 592.97144424, 4.59655905, 0.03987969, 352.80523682, 0.0000, 88.5768, 2.2400
93, 4.93579, 5637.00, 23.00, 116.61423512, 39.96564002, 592.76106314, 4.56801891, 0.03936276, 352.80908203, 0.0000, 88.5587, 2.2400
94, 4.98877, 5637.00, 23.00, 116.61422698, 39.96568978, 592.55209448, 4.54057693, 0.03888424, 352.81280518, 0.0000, 88.5410, 2.2400
95, 5.04370, 5637.00, 23.00, 116.61421872, 39.96574032, 592.33794158, 4.51336956, 0.03842744, 352.81658936, 0.0000, 88.5229, 2.2400
96, 5.09790, 5637.00, 23.00, 116.61421028, 39.96579190, 592.11743807, 4.48628998, 0.03798897, 352.82037354, 0.0000, 88.5045, 2.2400
97, 5.15137, 5637.00, 23.00, 116.61420210, 39.96584193, 591.90163519, 4.46067238, 0.03758861, 352.82400513, 0.0000, 88.4866, 2.2400
98, 5.20459, 5637.00, 23.00, 116.61419389, 39.96589213, 591.68317893, 4.43559885, 0.03720913, 352.82760620, 0.0000, 88.4687, 2.2400
99, 5.25830, 5637.00, 23.00, 116.61418566, 39.96594246, 591.46221529, 4.41107035, 0.03684924, 352.83111572, 0.0000, 88.4507, 2.2400
100, 5.31128, 5637.00, 23.00, 116.61417753, 39.96599224, 591.24174636, 4.38738871, 0.03651191, 352.83456421, 0.0000, 88.4328, 2.2400
101, 5.36426, 5637.00, 23.00, 116.61416945, 39.96604165, 591.02098235, 4.36442757, 0.03619301, 352.83789063, 0.0000, 88.4152, 2.2400
102, 5.41772, 5637.00, 23.00, 116.61416128, 39.96609158, 590.79597668, 4.34175777, 0.03588548, 352.84118652, 0.0000, 88.3974, 2.2400
103, 5.47168, 5637.00, 23.00, 116.61415299, 39.96614230, 590.56537248, 4.31924582, 0.03558647, 352.84445190, 0.0000, 88.3792, 2.2400
104, 5.52466, 5637.00, 23.00, 116.61414488, 39.96619190, 590.33791495, 4.29771709, 0.03530529, 352.84753418, 0.0000, 88.3615, 2.2400
105, 5.57813, 5637.00, 23.00, 116.61413668, 39.96624207, 590.10588047, 4.27639008, 0.03503098, 352.85058594, 0.0000, 88.3435, 2.2400
106, 5.63232, 5637.00, 23.00, 116.61412843, 39.96629256, 589.87032309, 4.25532866, 0.03476323, 352.85354614, 0.0000, 88.3255, 2.2400
107, 5.69165, 5637.00, 23.00, 116.61411963, 39.96634639, 589.61698172, 4.23325586, 0.03448557, 352.85662842, 0.0000, 88.3062, 2.2400
108, 5.74609, 5637.00, 23.00, 116.61411101, 39.96639913, 589.36654602, 4.21193171, 0.03421904, 352.85946655, 0.0000, 88.2873, 2.2400
109, 5.80225, 5637.00, 23.00, 116.61410238, 39.96645188, 589.11382137, 4.19082880, 0.03395676, 352.86224365, 0.0000, 88.2685, 2.2400
110, 5.85522, 5637.00, 23.00, 116.61409426, 39.96650160, 588.87362910, 4.17108679, 0.03371179, 352.86471558, 0.0000, 88.2507, 2.2400
111, 5.90796, 5637.00, 23.00, 116.61408619, 39.96655100, 588.63305787, 4.15157413, 0.03347012, 352.86712646, 0.0000, 88.2330, 2.2400
112, 5.96191, 5637.00, 23.00, 116.61407799, 39.96660113, 588.38692094, 4.13184023, 0.03322480, 352.86941528, 0.0000, 88.2150, 2.2400
113, 6.01538, 5637.00, 23.00, 116.61406976, 39.96665149, 588.13772203, 4.11208153, 0.03297749, 352.87161255, 0.0000, 88.1971, 2.2400
114, 6.06836, 5637.00, 23.00, 116.61406166, 39.96670107, 587.89034774, 4.09268808, 0.03273236, 352.87368774, 0.0000, 88.1793, 2.2400
115, 6.12183, 5637.00, 23.00, 116.61405351, 39.96675093, 587.63966748, 4.07328987, 0.03248275, 352.87561035, 0.0000, 88.1615, 2.2400
116, 6.17529, 5637.00, 23.00, 116.61404531, 39.96680116, 587.38511718, 4.05390358, 0.03222763, 352.87750244, 0.0000, 88.1435, 2.2400
117, 6.23730, 5637.00, 23.00, 116.61403718, 39.96685089, 587.13112232, 4.03491020, 0.03197014, 352.87921143, 0.0000, 88.1257, 2.2400
118, 6.29102, 5637.00, 23.00, 116.61402764, 39.96690928, 586.83032342, 4.01290655, 0.03166056, 352.88104248, 0.0000, 88.1048, 2.2400
119, 6.34375, 5637.00, 23.00, 116.61401956, 39.96695875, 586.57340789, 3.99457264, 0.03139241, 352.88253784, 0.0000, 88.0871, 2.2400
120, 6.39722, 5637.00, 23.00, 116.61401142, 39.96700856, 586.31277629, 3.97643209, 0.03111602, 352.88394165, 0.0000, 88.0692, 2.2400
121, 6.45020, 5637.00, 23.00, 116.61400328, 39.96705841, 586.04991564, 3.95862126, 0.03083179, 352.88516235, 0.0000, 88.0514, 2.2400
122, 6.50415, 5637.00, 23.00, 116.61399505, 39.96710879, 585.78230809, 3.94099927, 0.03053706, 352.88635254, 0.0000, 88.0333, 2.2400
123, 6.55811, 5637.00, 23.00, 116.61398687, 39.96715888, 585.51418339, 3.92386532, 0.03023531, 352.88735962, 0.0000, 88.0154, 2.2400
124, 6.61206, 5637.00, 23.00, 116.61397859, 39.96720956, 585.24093642, 3.90694571, 0.02992146, 352.88830566, 0.0000, 87.9973, 2.2400
125, 6.66895, 5637.00, 23.00, 116.61397017, 39.96726109, 584.96100478, 3.89017844, 0.02959225, 352.88909912, 0.0000, 87.9788, 2.2400
126, 6.72485, 5637.00, 23.00, 116.61396136, 39.96731504, 584.66569485, 3.87310171, 0.02923723, 352.88983154, 0.0000, 87.9595, 2.2400
127, 6.77490, 5637.00, 23.00, 116.61395271, 39.96736805, 584.37331103, 3.85680747, 0.02887753, 352.89044189, 0.0000, 87.9405, 2.2400
128, 6.82861, 5637.00, 23.00, 116.61394452, 39.96741820, 584.09469307, 3.84181380, 0.02852712, 352.89089966, 0.0000, 87.9225, 2.2400
129, 6.88672, 5637.00, 23.00, 116.61393575, 39.96747189, 583.79425795, 3.82624483, 0.02814164, 352.89129639, 0.0000, 87.9033, 2.2400
130, 6.93945, 5637.00, 23.00, 116.61392757, 39.96752199, 583.51195593, 3.81216741, 0.02777177, 352.89154053, 0.0000, 87.8854, 2.2400
131, 6.99292, 5637.00, 23.00, 116.61391940, 39.96757201, 583.22819150, 3.79854035, 0.02739303, 352.89169312, 0.0000, 87.8674, 2.2400
132, 7.04639, 5637.00, 23.00, 116.61391125, 39.96762193, 582.94308890, 3.78536224, 0.02700501, 352.89172363, 0.0000, 87.8495, 2.2400
133, 7.09912, 5637.00, 23.00, 116.61390321, 39.96767120, 582.65987654, 3.77276540, 0.02661225, 352.89166260, 0.0000, 87.8319, 2.2400
134, 7.15259, 5637.00, 23.00, 116.61389504, 39.96772123, 582.37042966, 3.76038051, 0.02620417, 352.89157104, 0.0000, 87.8140, 2.2400
135, 7.20630, 5637.00, 23.00, 116.61388691, 39.96777105, 582.08038702, 3.74845290, 0.02578809, 352.89132690, 0.0000, 87.7961, 2.2400
136, 7.25977, 5637.00, 23.00, 116.61387867, 39.96782149, 581.78485920, 3.73677802, 0.02535762, 352.89102173, 0.0000, 87.7780, 2.2400
137, 7.31348, 5637.00, 23.00, 116.61387049, 39.96787160, 581.48944051, 3.72557735, 0.02492073, 352.89062500, 0.0000, 87.7601, 2.2400
138, 7.36743, 5637.00, 23.00, 116.61386238, 39.96792129, 581.19472929, 3.71485353, 0.02447855, 352.89013672, 0.0000, 87.7422, 2.2400
139, 7.42041, 5637.00, 23.00, 116.61385417, 39.96797159, 580.89464514, 3.70438313, 0.02402268, 352.88964844, 0.0000, 87.7242, 2.2400
140, 7.47388, 5637.00, 23.00, 116.61384604, 39.96802144, 580.59550776, 3.69438291, 0.02356214, 352.88897705, 0.0000, 87.7063, 2.2400
141, 7.52856, 5637.00, 23.00, 116.61383768, 39.96807267, 580.28626240, 3.68449068, 0.02308065, 352.88827515, 0.0000, 87.6880, 2.2400
142, 7.58276, 5637.00, 23.00, 116.61382945, 39.96812306, 579.98032686, 3.67513585, 0.02259898, 352.88751221, 0.0000, 87.6699, 2.2400
143, 7.63794, 5637.00, 23.00, 116.61382120, 39.96817361, 579.67167241, 3.66612053, 0.02210799, 352.88668823, 0.0000, 87.6519, 2.2400
144, 7.69800, 5637.00, 23.00, 116.61381190, 39.96823063, 579.32153070, 3.65639138, 0.02154521, 352.88565063, 0.0000, 87.6314, 2.2400
145, 7.75171, 5637.00, 23.00, 116.61380365, 39.96828118, 579.00929943, 3.64814639, 0.02103907, 352.88470459, 0.0000, 87.6133, 2.2400
146, 7.80811, 5637.00, 23.00, 116.61379504, 39.96833397, 578.68146140, 3.63991642, 0.02050420, 352.88363647, 0.0000, 87.5944, 2.2400
147, 7.86157, 5637.00, 23.00, 116.61378687, 39.96838399, 578.36916582, 3.63247204, 0.01999151, 352.88256836, 0.0000, 87.5765, 2.2400
148, 7.91479, 5637.00, 23.00, 116.61377874, 39.96843383, 578.05640644, 3.62539411, 0.01947586, 352.88146973, 0.0000, 87.5585, 2.2400
149, 7.96899, 5637.00, 23.00, 116.61377065, 39.96848342, 577.74373604, 3.61868691, 0.01895816, 352.88031006, 0.0000, 87.5408, 2.2400
150, 8.02197, 5637.00, 23.00, 116.61376246, 39.96853363, 577.42555450, 3.61223149, 0.01843003, 352.87911987, 0.0000, 87.5228, 2.2400
151, 8.07568, 5637.00, 23.00, 116.61375429, 39.96858372, 577.10668305, 3.60612917, 0.01789949, 352.87789917, 0.0000, 87.5048, 2.2400
152, 8.12891, 5637.00, 23.00, 116.61374612, 39.96863376, 576.78657530, 3.60036802, 0.01736621, 352.87664795, 0.0000, 87.4869, 2.2400
153, 8.18237, 5637.00, 23.00, 116.61373799, 39.96868360, 576.46635381, 3.59495854, 0.01683228, 352.87536621, 0.0000, 87.4691, 2.2400
154, 8.23584, 5637.00, 23.00, 116.61372983, 39.96873362, 576.14346643, 3.58985710, 0.01629432, 352.87405396, 0.0000, 87.4511, 2.2400
155, 8.28906, 5637.00, 23.00, 116.61372169, 39.96878350, 575.82015530, 3.58509612, 0.01575645, 352.87274170, 0.0000, 87.4333, 2.2400
156, 8.34302, 5637.00, 23.00, 116.61371361, 39.96883303, 575.49770109, 3.58068752, 0.01522139, 352.87139893, 0.0000, 87.4155, 2.2400
157, 8.39673, 5637.00, 23.00, 116.61370539, 39.96888343, 575.16822658, 3.57652760, 0.01467650, 352.87002563, 0.0000, 87.3974, 2.2400
158, 8.45020, 5637.00, 23.00, 116.61369716, 39.96893389, 574.83697361, 3.57269001, 0.01413092, 352.86865234, 0.0000, 87.3793, 2.2400
159, 8.50439, 5637.00, 23.00, 116.61368892, 39.96898443, 574.50381447, 3.56917453, 0.01358460, 352.86718750, 0.0000, 87.3612, 2.2400
160, 8.55884, 5637.00, 23.00, 116.61368062, 39.96903529, 574.16729953, 3.56596613, 0.01303663, 352.86578369, 0.0000, 87.3430, 2.2400
161, 8.61450, 5637.00, 23.00, 116.61367223, 39.96908670, 573.82575800, 3.56305623, 0.01248430, 352.86434937, 0.0000, 87.3246, 2.2400
162, 8.67456, 5637.00, 23.00, 116.61366312, 39.96914258, 573.45303017, 3.56027317, 0.01188642, 352.86276245, 0.0000, 87.3045, 2.2400
163, 8.73364, 5637.00, 23.00, 116.61365407, 39.96919803, 573.08175247, 3.55790186, 0.01129699, 352.86126709, 0.0000, 87.2846, 2.2400
164, 8.78882, 5637.00, 23.00, 116.61364553, 39.96925041, 572.72960770, 3.55601525, 0.01074301, 352.85977173, 0.0000, 87.2658, 2.2400
165, 8.84570, 5637.00, 23.00, 116.61363714, 39.96930185, 572.38260170, 3.55449724, 0.01020338, 352.85836792, 0.0000, 87.2474, 2.2400
166, 8.90210, 5637.00, 23.00, 116.61362836, 39.96935569, 572.01814707, 3.55325603, 0.00964330, 352.85687256, 0.0000, 87.2281, 2.2400
167, 8.95801, 5637.00, 23.00, 116.61361991, 39.96940746, 571.66652501, 3.55239844, 0.00911003, 352.85546875, 0.0000, 87.2096, 2.2400
168, 9.01196, 5637.00, 23.00, 116.61361167, 39.96945798, 571.32223312, 3.55187321, 0.00859478, 352.85406494, 0.0000, 87.1914, 2.2400
169, 9.06592, 5637.00, 23.00, 116.61360328, 39.96950944, 570.97043118, 3.55165601, 0.00807611, 352.85269165, 0.0000, 87.1730, 2.2400
170, 9.11963, 5637.00, 23.00, 116.61359509, 39.96955965, 570.62622876, 3.55174971, 0.00757668, 352.85137939, 0.0000, 87.1550, 2.2400
171, 9.17383, 5637.00, 23.00, 116.61358682, 39.96961034, 570.27761013, 3.55214596, 0.00707926, 352.85009766, 0.0000, 87.1368, 2.2400
172, 9.22754, 5637.00, 23.00, 116.61357863, 39.96966058, 569.93120849, 3.55283689, 0.00659331, 352.84881592, 0.0000, 87.1189, 2.2400
173, 9.28125, 5637.00, 23.00, 116.61357052, 39.96971032, 569.58726487, 3.55381131, 0.00611997, 352.84759521, 0.0000, 87.1010, 2.2400
174, 9.33618, 5637.00, 23.00, 116.61356211, 39.96976184, 569.23011776, 3.55512118, 0.00563766, 352.84634399, 0.0000, 87.0825, 2.2400
175, 9.38989, 5637.00, 23.00, 116.61355392, 39.96981210, 568.88075576, 3.55669355, 0.00517551, 352.84512329, 0.0000, 87.0645, 2.2400
176, 9.44336, 5637.00, 23.00, 116.61354574, 39.96986221, 568.53160985, 3.55854726, 0.00472359, 352.84399414, 0.0000, 87.0466, 2.2400
177, 9.49805, 5637.00, 23.00, 116.61353760, 39.96991215, 568.18279300, 3.56067681, 0.00428158, 352.84283447, 0.0000, 87.0286, 2.2400
178, 9.55249, 5637.00, 23.00, 116.61352917, 39.96996379, 567.82130995, 3.56317019, 0.00383455, 352.84173584, 0.0000, 87.0102, 2.2400
179, 9.60791, 5637.00, 23.00, 116.61352082, 39.97001502, 567.46188107, 3.56593037, 0.00340102, 352.84063721, 0.0000, 86.9918, 2.2400
180, 9.66724, 5637.00, 23.00, 116.61351195, 39.97006942, 567.07931215, 3.56917191, 0.00295199, 352.83953857, 0.0000, 86.9723, 2.2400
181, 9.72485, 5637.00, 23.00, 116.61350323, 39.97012286, 566.70272959, 3.57265949, 0.00252243, 352.83843994, 0.0000, 86.9532, 2.2400
182, 9.78589, 5637.00, 23.00, 116.61349448, 39.97017650, 566.32388835, 3.57646370, 0.00219084, 352.83746338, 0.0000, 86.9339, 2.2400
183, 9.84009, 5637.00, 23.00, 116.61348525, 39.97023307, 565.92348513, 3.58099842, 0.00552829, 352.83651733, 0.0000, 86.9137, 2.2400
184, 9.89380, 5637.00, 23.00, 116.61347706, 39.97028333, 565.56696560, 3.58563662, 0.01501087, 352.83584595, 0.0000, 86.8956, 2.2400
185, 9.94849, 5637.00, 23.00, 116.61346881, 39.97033390, 565.20746030, 3.59090781, 0.03156160, 352.83535767, 0.0000, 86.8775, 2.2400
186, 10.00293, 5637.00, 23.00, 116.61346043, 39.97038526, 564.84158969, 3.59685516, 0.05566575, 352.83508301, 0.0000, 86.8591, 2.2400
187, 10.05762, 5637.00, 23.00, 116.61345211, 39.97043628, 564.47740671, 3.60322118, 0.08524465, 352.83496094, 0.0000, 86.8408, 2.2400
188, 10.11133, 5637.00, 23.00, 116.61344390, 39.97048666, 564.11726072, 3.60969377, 0.11594664, 352.83489990, 0.0000, 86.8228, 2.2400
189, 10.16675, 5637.00, 23.00, 116.61343548, 39.97053826, 563.74789811, 3.61640191, 0.14735726, 352.83496094, 0.0000, 86.8042, 2.2400
190, 10.22168, 5637.00, 23.00, 116.61342714, 39.97058943, 563.38103202, 3.62309289, 0.17807791, 352.83505249, 0.0000, 86.7859, 2.2400
191, 10.27686, 5637.00, 23.00, 116.61341870, 39.97064119, 563.00956281, 3.62987828, 0.20860155, 352.83523560, 0.0000, 86.7674, 2.2400
192, 10.33276, 5637.00, 23.00, 116.61341033, 39.97069255, 562.64051066, 3.63662648, 0.23833157, 352.83551025, 0.0000, 86.7489, 2.2400
193, 10.38843, 5637.00, 23.00, 116.61340172, 39.97074536, 562.26061728, 3.64358306, 0.26831821, 352.83590698, 0.0000, 86.7300, 2.2400
194, 10.44336, 5637.00, 23.00, 116.61339335, 39.97079669, 561.89097636, 3.65036869, 0.29689851, 352.83639526, 0.0000, 86.7116, 2.2400
195, 10.49951, 5637.00, 23.00, 116.61338492, 39.97084847, 561.51779159, 3.65724540, 0.32516301, 352.83700562, 0.0000, 86.6931, 2.2400
196, 10.55591, 5637.00, 23.00, 116.61337629, 39.97090143, 561.13579094, 3.66431999, 0.35348865, 352.83770752, 0.0000, 86.6741, 2.2400
197, 10.61182, 5637.00, 23.00, 116.61336768, 39.97095423, 560.75454997, 3.67142916, 0.38115028, 352.83859253, 0.0000, 86.6552, 2.2400
198, 10.66943, 5637.00, 23.00, 116.61335913, 39.97100676, 560.37507167, 3.67856598, 0.40808767, 352.83956909, 0.0000, 86.6364, 2.2400
199, 10.72925, 5637.00, 23.00, 116.61334980, 39.97106404, 559.96098524, 3.68643594, 0.43680996, 352.84085083, 0.0000, 86.6159, 2.2400
200, 10.78931, 5637.00, 23.00, 116.61334064, 39.97112030, 559.55399076, 3.69427204, 0.46436042, 352.84228516, 0.0000, 86.5957, 2.2400
201, 10.84448, 5637.00, 23.00, 116.61333237, 39.97117116, 559.18592470, 3.70145512, 0.48870197, 352.84368896, 0.0000, 86.5775, 2.2400
202, 10.90063, 5637.00, 23.00, 116.61332379, 39.97122390, 558.80402110, 3.70901442, 0.51338422, 352.84533691, 0.0000, 86.5586, 2.2400
203, 10.95703, 5637.00, 23.00, 116.61331526, 39.97127633, 558.42429078, 3.71664596, 0.53734773, 352.84713745, 0.0000, 86.5398, 2.2400
204, 11.01221, 5637.00, 23.00, 116.61330683, 39.97132815, 558.04884834, 3.72431159, 0.56047851, 352.84909058, 0.0000, 86.5212, 2.2400
205, 11.06860, 5637.00, 23.00, 116.61329836, 39.97138030, 557.67088874, 3.73215485, 0.58320349, 352.85122681, 0.0000, 86.5026, 2.2400
206, 11.12329, 5637.00, 23.00, 116.61328994, 39.97143212, 557.29528867, 3.74008036, 0.60522896, 352.85354614, 0.0000, 86.4840, 2.2400
207, 11.17822, 5637.00, 23.00, 116.61328151, 39.97148404, 556.91898102, 3.74815273, 0.62674105, 352.85598755, 0.0000, 86.4655, 2.2400
208, 11.23340, 5637.00, 23.00, 116.61327327, 39.97153476, 556.55126476, 3.75617194, 0.64722919, 352.85861206, 0.0000, 86.4472, 2.2400
209, 11.28955, 5637.00, 23.00, 116.61326476, 39.97158720, 556.17115702, 3.76459551, 0.66785079, 352.86148071, 0.0000, 86.4285, 2.2400
210, 11.34570, 5637.00, 23.00, 116.61325621, 39.97163992, 555.78902835, 3.77320290, 0.68801451, 352.86456299, 0.0000, 86.4096, 2.2400
211, 11.40161, 5637.00, 23.00, 116.61324765, 39.97169270, 555.40650977, 3.78196001, 0.70763266, 352.86782837, 0.0000, 86.3907, 2.2400
212, 11.45654, 5637.00, 23.00, 116.61323932, 39.97174409, 555.03415078, 3.79061913, 0.72618383, 352.87118530, 0.0000, 86.3723, 2.2400
213, 11.51465, 5637.00, 23.00, 116.61323067, 39.97179745, 554.64755461, 3.79974341, 0.74487579, 352.87487793, 0.0000, 86.3532, 2.2400
214, 11.57031, 5637.00, 23.00, 116.61322217, 39.97184992, 554.26760539, 3.80884457, 0.76268601, 352.87872314, 0.0000, 86.3344, 2.2400
215, 11.62476, 5637.00, 23.00, 116.61321379, 39.97190173, 553.89259998, 3.81795001, 0.77971750, 352.88269043, 0.0000, 86.3159, 2.2400
216, 11.68286, 5637.00, 23.00, 116.61320523, 39.97195460, 553.51008190, 3.82736111, 0.79653209, 352.88693237, 0.0000, 86.2969, 2.2400
217, 11.74414, 5637.00, 23.00, 116.61319627, 39.97200999, 553.10947848, 3.83734345, 0.81353945, 352.89157104, 0.0000, 86.2771, 2.2400
218, 11.79883, 5637.00, 23.00, 116.61318758, 39.97206379, 552.72069715, 3.84714532, 0.82945532, 352.89630127, 0.0000, 86.2578, 2.2400
219, 11.85352, 5637.00, 23.00, 116.61317924, 39.97211544, 552.34762604, 3.85665154, 0.84418350, 352.90106201, 0.0000, 86.2393, 2.2400
220, 11.90820, 5637.00, 23.00, 116.61317093, 39.97216691, 551.97616042, 3.86620831, 0.85832012, 352.90591431, 0.0000, 86.2209, 2.2400
221, 11.96411, 5637.00, 23.00, 116.61316262, 39.97221840, 551.60474599, 3.87584877, 0.87192619, 352.91098022, 0.0000, 86.2024, 2.2400
222, 12.01978, 5637.00, 23.00, 116.61315418, 39.97227075, 551.22751839, 3.88572311, 0.88520592, 352.91635132, 0.0000, 86.1837, 2.2400
223, 12.07568, 5637.00, 23.00, 116.61314570, 39.97232334, 550.84883025, 3.89571047, 0.89799297, 352.92187500, 0.0000, 86.1649, 2.2400
224, 12.13086, 5637.00, 23.00, 116.61313736, 39.97237510, 550.47645208, 3.90559936, 0.91003430, 352.92752075, 0.0000, 86.1464, 2.2400
225, 12.18506, 5637.00, 23.00, 116.61312918, 39.97242595, 550.11099907, 3.91536093, 0.92133963, 352.93325806, 0.0000, 86.1282, 2.2400
226, 12.23975, 5637.00, 23.00, 116.61312096, 39.97247704, 549.74417628, 3.92521262, 0.93217903, 352.93914795, 0.0000, 86.1098, 2.2400
227, 12.29395, 5637.00, 23.00, 116.61311277, 39.97252793, 549.37911994, 3.93506265, 0.94246030, 352.94519043, 0.0000, 86.0917, 2.2400
228, 12.34912, 5637.00, 23.00, 116.61310452, 39.97257930, 549.01109808, 3.94503713, 0.95231420, 352.95138550, 0.0000, 86.0733, 2.2400
229, 12.40356, 5637.00, 23.00, 116.61309630, 39.97263049, 548.64475818, 3.95500207, 0.96161932, 352.95779419, 0.0000, 86.0550, 2.2400
230, 12.45825, 5637.00, 23.00, 116.61308808, 39.97268170, 548.27870210, 3.96499586, 0.97041351, 352.96435547, 0.0000, 86.0366, 2.2400
231, 12.51270, 5637.00, 23.00, 116.61307993, 39.97273255, 547.91568505, 3.97493553, 0.97863841, 352.97097778, 0.0000, 86.0184, 2.2400
232, 12.56763, 5637.00, 23.00, 116.61307171, 39.97278378, 547.55041099, 3.98496175, 0.98641920, 352.97778320, 0.0000, 86.0001, 2.2400
233, 12.62378, 5637.00, 23.00, 116.61306329, 39.97283635, 547.17609223, 3.99525881, 0.99387723, 352.98489380, 0.0000, 85.9813, 2.2400
234, 12.68042, 5637.00, 23.00, 116.61305510, 39.97288751, 546.81227934, 4.00528145, 1.00062752, 352.99200439, 0.0000, 85.9630, 2.2400
235, 12.73901, 5637.00, 23.00, 116.61304600, 39.97294440, 546.40835585, 4.01642799, 1.00754929, 353.00003052, 0.0000, 85.9426, 2.2400
236, 12.79395, 5637.00, 23.00, 116.61303779, 39.97299580, 546.04399828, 4.02649069, 1.01328051, 353.00741577, 0.0000, 85.9242, 2.2400
237, 12.85156, 5637.00, 23.00, 116.61302915, 39.97304990, 545.66107079, 4.03707123, 1.01877809, 353.01528931, 0.0000, 85.9049, 2.2400
238, 12.90698, 5637.00, 23.00, 116.61302098, 39.97310108, 545.29940797, 4.04706764, 1.02348340, 353.02285767, 0.0000, 85.8866, 2.2400
239, 12.96167, 5637.00, 23.00, 116.61301270, 39.97315298, 544.93317254, 4.05718946, 1.02776790, 353.03060913, 0.0000, 85.8680, 2.2400
240, 13.01660, 5637.00, 23.00, 116.61300455, 39.97320415, 544.57274834, 4.06714439, 1.03151333, 353.03839111, 0.0000, 85.8497, 2.2400
241, 13.07129, 5637.00, 23.00, 116.61299637, 39.97325548, 544.21177425, 4.07710743, 1.03480148, 353.04626465, 0.0000, 85.8313, 2.2400
242, 13.12598, 5637.00, 23.00, 116.61298829, 39.97330625, 543.85538454, 4.08693266, 1.03759575, 353.05413818, 0.0000, 85.8131, 2.2400
243, 13.18140, 5637.00, 23.00, 116.61297996, 39.97335865, 543.48812425, 4.09704733, 1.04000628, 353.06231689, 0.0000, 85.7944, 2.2400
244, 13.23682, 5637.00, 23.00, 116.61297182, 39.97340982, 543.13013765, 4.10688782, 1.04190481, 353.07037354, 0.0000, 85.7761, 2.2400
245, 13.29102, 5637.00, 23.00, 116.61296368, 39.97346113, 542.77188509, 4.11671925, 1.04336202, 353.07852173, 0.0000, 85.7578, 2.2400
246, 13.34595, 5637.00, 23.00, 116.61295549, 39.97351273, 542.41220217, 4.12656736, 1.04438126, 353.08682251, 0.0000, 85.7393, 2.2400
247, 13.40063, 5637.00, 23.00, 116.61294738, 39.97356384, 542.05661725, 4.13627720, 1.04495680, 353.09503174, 0.0000, 85.7209, 2.2400
248, 13.45654, 5637.00, 23.00, 116.61293906, 39.97361638, 541.69179753, 4.14621401, 1.04510856, 353.10351563, 0.0000, 85.7022, 2.2400
249, 13.51172, 5637.00, 23.00, 116.61293091, 39.97366786, 541.33501740, 4.15590286, 1.04482853, 353.11190796, 0.0000, 85.6837, 2.2400
250, 13.56665, 5637.00, 23.00, 116.61292275, 39.97371943, 540.97835582, 4.16556120, 1.04413116, 353.12030029, 0.0000, 85.6653, 2.2400
251, 13.62109, 5637.00, 23.00, 116.61291468, 39.97377043, 540.62630712, 4.17506027, 1.04303968, 353.12863159, 0.0000, 85.6471, 2.2400
252, 13.67627, 5637.00, 23.00, 116.61290657, 39.97382178, 540.27254041, 4.18456888, 1.04154134, 353.13705444, 0.0000, 85.6287, 2.2400
253, 13.73926, 5637.00, 23.00, 116.61289765, 39.97387832, 539.88391846, 4.19497919, 1.03943717, 353.14633179, 0.0000, 85.6085, 2.2400
254, 13.79419, 5637.00, 23.00, 116.61288911, 39.97393248, 539.51243525, 4.20490265, 1.03698778, 353.15521240, 0.0000, 85.5891, 2.2400
255, 13.84912, 5637.00, 23.00, 116.61288101, 39.97398384, 539.16092374, 4.21426630, 1.03428090, 353.16360474, 0.0000, 85.5708, 2.2400
256, 13.90356, 5637.00, 23.00, 116.61287296, 39.97403499, 538.81158775, 4.22354937, 1.03122091, 353.17199707, 0.0000, 85.5525, 2.2400
257, 13.95947, 5637.00, 23.00, 116.61286485, 39.97408653, 538.46034190, 4.23286057, 1.02777982, 353.18038940, 0.0000, 85.5341, 2.2400
258, 14.01489, 5637.00, 23.00, 116.61285657, 39.97413918, 538.10223822, 4.24233198, 1.02389932, 353.18890381, 0.0000, 85.5152, 2.2400
259, 14.07007, 5637.00, 23.00, 116.61284857, 39.97419011, 537.75668192, 4.25144911, 1.01980722, 353.19717407, 0.0000, 85.4970, 2.2400
260, 14.12402, 5637.00, 23.00, 116.61284054, 39.97424126, 537.41033526, 4.26056433, 1.01537061, 353.20541382, 0.0000, 85.4787, 2.2400
261, 14.17896, 5637.00, 23.00, 116.61283256, 39.97429210, 537.06680906, 4.26957560, 1.01064169, 353.21353149, 0.0000, 85.4605, 2.2400
262, 14.23291, 5637.00, 23.00, 116.61282452, 39.97434343, 536.72073185, 4.27862406, 1.00555456, 353.22174072, 0.0000, 85.4421, 2.2400
263, 14.28809, 5637.00, 23.00, 116.61281644, 39.97439498, 536.37395420, 4.28765345, 1.00014055, 353.22988892, 0.0000, 85.4237, 2.2400
264, 14.34326, 5637.00, 23.00, 116.61280837, 39.97444654, 536.02789589, 4.29662514, 0.99442607, 353.23800659, 0.0000, 85.4053, 2.2400
265, 14.39819, 5637.00, 23.00, 116.61280038, 39.97449764, 535.68571859, 4.30545044, 0.98847646, 353.24594116, 0.0000, 85.3870, 2.2400
266, 14.45288, 5637.00, 23.00, 116.61279229, 39.97454940, 535.33985837, 4.31432056, 0.98217046, 353.25387573, 0.0000, 85.3685, 2.2400
267, 14.50757, 5637.00, 23.00, 116.61278429, 39.97460067, 534.99805785, 4.32302952, 0.97565490, 353.26174927, 0.0000, 85.3501, 2.2400
268, 14.56250, 5637.00, 23.00, 116.61277627, 39.97465204, 534.65637646, 4.33167648, 0.96886677, 353.26947021, 0.0000, 85.3318, 2.2400
269, 14.61768, 5637.00, 23.00, 116.61276827, 39.97470334, 534.31593237, 4.34022951, 0.96183980, 353.27713013, 0.0000, 85.3134, 2.2400
270, 14.67285, 5637.00, 23.00, 116.61276023, 39.97475499, 533.97395505, 4.34874964, 0.95452070, 353.28472900, 0.0000, 85.2950, 2.2400
271, 14.73389, 5637.00, 23.00, 116.61275150, 39.97481103, 533.60378303, 4.35788774, 0.94631302, 353.29287720, 0.0000, 85.2750, 2.2400
272, 14.78589, 5637.00, 23.00, 116.61274519, 39.97485158, 533.33655997, 4.36442852, 0.94021219, 353.29867554, 0.0000, 85.2604, 2.2400
273, 14.84424, 5637.00, 23.00, 116.61273448, 39.97492052, 532.88331058, 4.37540722, 0.92952895, 353.30841064, 0.0000, 85.2358, 2.2400
274, 14.89941, 5637.00, 23.00, 116.61272648, 39.97497199, 532.54586399, 4.38346863, 0.92131990, 353.31552124, 0.0000, 85.2174, 2.2400
275, 14.95630, 5637.00, 23.00, 116.61271822, 39.97502523, 532.19763847, 4.39169073, 0.91262805, 353.32275391, 0.0000, 85.1983, 2.2400
276, 15.01050, 5637.00, 23.00, 116.61271026, 39.97507655, 531.86272308, 4.39949656, 0.90406257, 353.32962036, 0.0000, 85.1800, 2.2400
277, 15.06567, 5637.00, 23.00, 116.61270228, 39.97512804, 531.52753109, 4.40720320, 0.89529508, 353.33636475, 0.0000, 85.1616, 2.2400
278, 15.12012, 5637.00, 23.00, 116.61269441, 39.97517889, 531.19724698, 4.41469574, 0.88647509, 353.34289551, 0.0000, 85.1434, 2.2400
279, 15.17456, 5637.00, 23.00, 116.61268651, 39.97522993, 530.86651764, 4.42208862, 0.87746936, 353.34936523, 0.0000, 85.1251, 2.2400
280, 15.22900, 5637.00, 23.00, 116.61267859, 39.97528113, 530.53554385, 4.42937994, 0.86828947, 353.35565186, 0.0000, 85.1068, 2.2400
281, 15.28369, 5637.00, 23.00, 116.61267072, 39.97533209, 530.20685375, 4.43651152, 0.85901684, 353.36178589, 0.0000, 85.0886, 2.2400
282, 15.33838, 5637.00, 23.00, 116.61266280, 39.97538337, 529.87695509, 4.44355440, 0.84955937, 353.36782837, 0.0000, 85.0703, 2.2400
283, 15.39331, 5637.00, 23.00, 116.61265484, 39.97543493, 529.54594372, 4.45050287, 0.83992577, 353.37374878, 0.0000, 85.0518, 2.2400
284, 15.44800, 5637.00, 23.00, 116.61264695, 39.97548612, 529.21807909, 4.45726156, 0.83025181, 353.37948608, 0.0000, 85.0335, 2.2400
285, 15.50244, 5637.00, 23.00, 116.61263908, 39.97553718, 528.89186514, 4.46387291, 0.82050264, 353.38507080, 0.0000, 85.0153, 2.2400
286, 15.55664, 5637.00, 23.00, 116.61263127, 39.97558793, 528.56837234, 4.47031021, 0.81071824, 353.39044189, 0.0000, 84.9971, 2.2400
287, 15.61182, 5637.00, 23.00, 116.61262331, 39.97563961, 528.23964582, 4.47672319, 0.80066687, 353.39581299, 0.0000, 84.9787, 2.2400
288, 15.66699, 5637.00, 23.00, 116.61261538, 39.97569122, 527.91223046, 4.48298740, 0.79055297, 353.40100098, 0.0000, 84.9602, 2.2400
289, 15.72412, 5637.00, 23.00, 116.61260728, 39.97574391, 527.57865619, 4.48924017, 0.78014964, 353.40609741, 0.0000, 84.9414, 2.2400
290, 15.78223, 5637.00, 23.00, 116.61259875, 39.97579945, 527.22796789, 4.49566650, 0.76911527, 353.41131592, 0.0000, 84.9215, 2.2400
291, 15.83545, 5637.00, 23.00, 116.61259102, 39.97584983, 526.91060467, 4.50135660, 0.75905138, 353.41592407, 0.0000, 84.9035, 2.2400
292, 15.89233, 5637.00, 23.00, 116.61258292, 39.97590267, 526.57851487, 4.50717831, 0.74844539, 353.42053223, 0.0000, 84.8846, 2.2400
293, 15.94580, 5637.00, 23.00, 116.61257527, 39.97595257, 526.26555301, 4.51253748, 0.73838997, 353.42477417, 0.0000, 84.8667, 2.2400
294, 15.99976, 5637.00, 23.00, 116.61256752, 39.97600315, 525.94911033, 4.51783180, 0.72816813, 353.42892456, 0.0000, 84.8486, 2.2400
295, 16.05347, 5637.00, 23.00, 116.61255978, 39.97605373, 525.63332775, 4.52298832, 0.71791798, 353.43289185, 0.0000, 84.8305, 2.2400
296, 16.10767, 5637.00, 23.00, 116.61255204, 39.97610428, 525.31842762, 4.52800322, 0.70765513, 353.43670654, 0.0000, 84.8125, 2.2400
297, 16.16162, 5637.00, 23.00, 116.61254434, 39.97615466, 525.00526392, 4.53286409, 0.69741428, 353.44039917, 0.0000, 84.7945, 2.2400
298, 16.21558, 5637.00, 23.00, 116.61253660, 39.97620532, 524.69107360, 4.53760862, 0.68710846, 353.44390869, 0.0000, 84.7763, 2.2400
299, 16.26978, 5637.00, 23.00, 116.61252883, 39.97625616, 524.37645256, 4.54223061, 0.67676497, 353.44729614, 0.0000, 84.7581, 2.2400
300, 16.32471, 5637.00, 23.00, 116.61252100, 39.97630748, 524.05951856, 4.54675198, 0.66632724, 353.45059204, 0.0000, 84.7397, 2.2400
301, 16.37915, 5637.00, 23.00, 116.61251314, 39.97635902, 523.74197937, 4.55115128, 0.65585446, 353.45376587, 0.0000, 84.7213, 2.2400
302, 16.43213, 5637.00, 23.00, 116.61250556, 39.97640872, 523.43639985, 4.55526352, 0.64576888, 353.45660400, 0.0000, 84.7036, 2.2400
303, 16.48535, 5637.00, 23.00, 116.61249803, 39.97645814, 523.13315004, 4.55922174, 0.63576019, 353.45932007, 0.0000, 84.6859, 2.2400
304, 16.54028, 5637.00, 23.00, 116.61249023, 39.97650936, 522.81947777, 4.56318617, 0.62540984, 353.46203613, 0.0000, 84.6676, 2.2400
305, 16.59595, 5637.00, 23.00, 116.61248224, 39.97656184, 522.49880156, 4.56710339, 0.61483574, 353.46459961, 0.0000, 84.6488, 2.2400
306, 16.65039, 5637.00, 23.00, 116.61247453, 39.97661251, 522.18986696, 4.57074928, 0.60466331, 353.46697998, 0.0000, 84.6307, 2.2400
307, 16.70605, 5637.00, 23.00, 116.61246678, 39.97666347, 521.87972045, 4.57427835, 0.59446728, 353.46920776, 0.0000, 84.6125, 2.2400
308, 16.76465, 5637.00, 23.00, 116.61245825, 39.97671957, 521.53905373, 4.57800293, 0.58329165, 353.47152710, 0.0000, 84.5924, 2.2400
309, 16.81860, 5637.00, 23.00, 116.61245060, 39.97676995, 521.23380407, 4.58120728, 0.57330525, 353.47341919, 0.0000, 84.5744, 2.2400
310, 16.87231, 5637.00, 23.00, 116.61244291, 39.97682059, 520.92748734, 4.58429289, 0.56331247, 353.47521973, 0.0000, 84.5562, 2.2400
311, 16.92627, 5637.00, 23.00, 116.61243523, 39.97687123, 520.62182203, 4.58724642, 0.55337274, 353.47689819, 0.0000, 84.5381, 2.2400
312, 16.98438, 5637.00, 23.00, 116.61242694, 39.97692586, 520.29274832, 4.59027481, 0.54271257, 353.47857666, 0.0000, 84.5186, 2.2400
313, 17.03931, 5637.00, 23.00, 116.61241918, 39.97697706, 519.98489678, 4.59297657, 0.53277928, 353.48001099, 0.0000, 84.5003, 2.2400
314, 17.09424, 5637.00, 23.00, 116.61241151, 39.97702771, 519.68093951, 4.59551573, 0.52301377, 353.48129272, 0.0000, 84.4821, 2.2400
315, 17.14893, 5637.00, 23.00, 116.61240369, 39.97707935, 519.37164354, 4.59796381, 0.51312381, 353.48251343, 0.0000, 84.4637, 2.2400
316, 17.20337, 5637.00, 23.00, 116.61239593, 39.97713057, 519.06537705, 4.60025787, 0.50337809, 353.48358154, 0.0000, 84.4453, 2.2400
317, 17.25806, 5637.00, 23.00, 116.61238820, 39.97718164, 518.76060436, 4.60241890, 0.49372894, 353.48452759, 0.0000, 84.4271, 2.2400
318, 17.31372, 5637.00, 23.00, 116.61238031, 39.97723383, 518.44967720, 4.60449314, 0.48394102, 353.48538208, 0.0000, 84.4084, 2.2400
319, 17.36816, 5637.00, 23.00, 116.61237257, 39.97728499, 518.14543832, 4.60639000, 0.47441670, 353.48608398, 0.0000, 84.3901, 2.2400
320, 17.42407, 5637.00, 23.00, 116.61236468, 39.97733725, 517.83519178, 4.60817814, 0.46476227, 353.48672485, 0.0000, 84.3714, 2.2400
321, 17.48047, 5637.00, 23.00, 116.61235669, 39.97739010, 517.52197320, 4.60982132, 0.45507750, 353.48727417, 0.0000, 84.3525, 2.2400
322, 17.53638, 5637.00, 23.00, 116.61234884, 39.97744209, 517.21444559, 4.61125660, 0.44562903, 353.48773193, 0.0000, 84.3339, 2.2400
323, 17.59131, 5637.00, 23.00, 116.61234107, 39.97749359, 516.91025333, 4.61248589, 0.43634361, 353.48803711, 0.0000, 84.3154, 2.2400
324, 17.64600, 5637.00, 23.00, 116.61233338, 39.97754458, 516.60959382, 4.61349535, 0.42722827, 353.48831177, 0.0000, 84.2972, 2.2400
325, 17.70020, 5637.00, 23.00, 116.61232574, 39.97759520, 516.31156760, 4.61427784, 0.41825166, 353.48843384, 0.0000, 84.2791, 2.2400
326, 17.76074, 5637.00, 23.00, 116.61231725, 39.97765151, 515.98061611, 4.61487150, 0.40835485, 353.48852539, 0.0000, 84.2589, 2.2400
327, 17.81494, 5637.00, 23.00, 116.61230952, 39.97770281, 515.67956930, 4.61514902, 0.39941898, 353.48849487, 0.0000, 84.2406, 2.2400
328, 17.86987, 5637.00, 23.00, 116.61230181, 39.97775396, 515.37981524, 4.61517048, 0.39058447, 353.48840332, 0.0000, 84.2223, 2.2400
329, 17.92334, 5637.00, 23.00, 116.61229417, 39.97780473, 515.08277208, 4.61493826, 0.38189277, 353.48825073, 0.0000, 84.2041, 2.2400
330, 17.98120, 5637.00, 23.00, 116.61228607, 39.97785848, 514.76871453, 4.61442327, 0.37277251, 353.48800659, 0.0000, 84.1848, 2.2400
331, 18.03540, 5637.00, 23.00, 116.61227844, 39.97790920, 514.47281356, 4.61369753, 0.36424348, 353.48770142, 0.0000, 84.1667, 2.2400
332, 18.08936, 5637.00, 23.00, 116.61227083, 39.97795977, 514.17811741, 4.61276197, 0.35581017, 353.48733521, 0.0000, 84.1486, 2.2400
333, 18.14380, 5637.00, 23.00, 116.61226320, 39.97801052, 513.88280208, 4.61162949, 0.34742349, 353.48693848, 0.0000, 84.1304, 2.2400
334, 18.19946, 5637.00, 23.00, 116.61225541, 39.97806231, 513.58177471, 4.61030293, 0.33893839, 353.48641968, 0.0000, 84.1119, 2.2400
335, 18.25391, 5637.00, 23.00, 116.61224772, 39.97811349, 513.28466217, 4.60885143, 0.33062613, 353.48590088, 0.0000, 84.0936, 2.2400
336, 18.30859, 5637.00, 23.00, 116.61223994, 39.97816526, 512.98446299, 4.60727215, 0.32229212, 353.48532104, 0.0000, 84.0751, 2.2400
337, 18.36328, 5637.00, 23.00, 116.61223226, 39.97821635, 512.68846970, 4.60563612, 0.31413585, 353.48468018, 0.0000, 84.0567, 2.2400
338, 18.41821, 5637.00, 23.00, 116.61222453, 39.97826786, 512.39044324, 4.60393286, 0.30598465, 353.48403931, 0.0000, 84.0383, 2.2400
339, 18.47290, 5637.00, 23.00, 116.61221686, 39.97831893, 512.09518548, 4.60221910, 0.29785889, 353.48330688, 0.0000, 84.0200, 2.2400
340, 18.52686, 5637.00, 23.00, 116.61220936, 39.97836892, 511.80648896, 4.60053062, 0.28989810, 353.48257446, 0.0000, 84.0021, 2.2400
341, 18.58105, 5637.00, 23.00, 116.61220170, 39.97841995, 511.51201866, 4.59880161, 0.28189275, 353.48184204, 0.0000, 83.9839, 2.2400
342, 18.63599, 5637.00, 23.00, 116.61219400, 39.97847122, 511.21641067, 4.59706020, 0.27399933, 353.48104858, 0.0000, 83.9655, 2.2400
343, 18.69067, 5637.00, 23.00, 116.61218639, 39.97852197, 510.92404137, 4.59532881, 0.26628798, 353.48019409, 0.0000, 83.9473, 2.2400
344, 18.75098, 5637.00, 23.00, 116.61217817, 39.97857681, 510.60836975, 4.59343529, 0.25803396, 353.47930908, 0.0000, 83.9277, 2.2400
345, 18.80566, 5637.00, 23.00, 116.61217021, 39.97862988, 510.30309603, 4.59155798, 0.25011474, 353.47842407, 0.0000, 83.9086, 2.2400
346, 18.86035, 5637.00, 23.00, 116.61216259, 39.97868068, 510.01111410, 4.58969593, 0.24259433, 353.47750854, 0.0000, 83.8905, 2.2400
347, 18.91455, 5637.00, 23.00, 116.61215499, 39.97873145, 509.71953631, 4.58774042, 0.23513536, 353.47662354, 0.0000, 83.8722, 2.2400
348, 18.97339, 5637.00, 23.00, 116.61214679, 39.97878615, 509.40558563, 4.58549356, 0.22716127, 353.47561646, 0.0000, 83.8527, 2.2400
349, 19.02808, 5637.00, 23.00, 116.61213906, 39.97883777, 509.10950592, 4.58320427, 0.21969347, 353.47470093, 0.0000, 83.8342, 2.2400
350, 19.08301, 5637.00, 23.00, 116.61213134, 39.97888930, 508.81408222, 4.58072567, 0.21229029, 353.47372437, 0.0000, 83.8157, 2.2400
351, 19.13794, 5637.00, 23.00, 116.61212362, 39.97894082, 508.51893406, 4.57803249, 0.20494334, 353.47274780, 0.0000, 83.7972, 2.2400
352, 19.19214, 5637.00, 23.00, 116.61211608, 39.97899119, 508.23046858, 4.57517147, 0.19780856, 353.47183228, 0.0000, 83.7792, 2.2400
353, 19.24634, 5637.00, 23.00, 116.61210849, 39.97904191, 507.94018388, 4.57206106, 0.19067176, 353.47085571, 0.0000, 83.7611, 2.2400
354, 19.30054, 5637.00, 23.00, 116.61210086, 39.97909290, 507.64846656, 4.56870031, 0.18354519, 353.46994019, 0.0000, 83.7428, 2.2400
355, 19.35449, 5637.00, 23.00, 116.61209333, 39.97914321, 507.36076874, 4.56516647, 0.17655849, 353.46896362, 0.0000, 83.7248, 2.2400
356, 19.40845, 5637.00, 23.00, 116.61208578, 39.97919363, 507.07252444, 4.56143332, 0.16959903, 353.46804810, 0.0000, 83.7067, 2.2400
357, 19.46313, 5637.00, 23.00, 116.61207816, 39.97924458, 506.78135339, 4.55748892, 0.16261035, 353.46704102, 0.0000, 83.6885, 2.2400
358, 19.51733, 5637.00, 23.00, 116.61207055, 39.97929544, 506.49071974, 4.55341911, 0.15567550, 353.46606445, 0.0000, 83.6702, 2.2400
359, 19.57178, 5637.00, 23.00, 116.61206299, 39.97934602, 506.20180866, 4.54928541, 0.14882039, 353.46514893, 0.0000, 83.6521, 2.2400
360, 19.62622, 5637.00, 23.00, 116.61205541, 39.97939672, 505.91221169, 4.54510260, 0.14198847, 353.46423340, 0.0000, 83.6339, 2.2400
361, 19.68042, 5637.00, 23.00, 116.61204777, 39.97944778, 505.62059540, 4.54089355, 0.13514821, 353.46328735, 0.0000, 83.6156, 2.2400
362, 19.73950, 5637.00, 23.00, 116.61203982, 39.97950094, 505.31697420, 4.53655434, 0.12806517, 353.46231079, 0.0000, 83.5965, 2.2400
363, 19.79980, 5637.00, 23.00, 116.61203108, 39.97955942, 504.98297154, 4.53187561, 0.12032047, 353.46127319, 0.0000, 83.5756, 2.2400
364, 19.85620, 5637.00, 23.00, 116.61202317, 39.97961232, 504.68084586, 4.52775240, 0.11335783, 353.46035767, 0.0000, 83.5566, 2.2400
365, 19.91089, 5637.00, 23.00, 116.61201551, 39.97966360, 504.38787683, 4.52387714, 0.10664254, 353.45950317, 0.0000, 83.5382, 2.2400
366, 19.96606, 5637.00, 23.00, 116.61200789, 39.97971459, 504.09656994, 4.52015638, 0.10000157, 353.45858765, 0.0000, 83.5200, 2.2400
367, 20.02368, 5637.00, 23.00, 116.61199981, 39.97976862, 503.78785148, 4.51636648, 0.09300245, 353.45770264, 0.0000, 83.5006, 2.2400
368, 20.08032, 5637.00, 23.00, 116.61199200, 39.97982090, 503.48906727, 4.51282787, 0.08626435, 353.45681763, 0.0000, 83.4819, 2.2400
369, 20.13501, 5637.00, 23.00, 116.61198424, 39.97987286, 503.19200422, 4.50941801, 0.07960188, 353.45602417, 0.0000, 83.4632, 2.2400
370, 20.18970, 5637.00, 23.00, 116.61197650, 39.97992465, 502.89582928, 4.50608826, 0.07299543, 353.45513916, 0.0000, 83.4446, 2.2400
371, 20.24438, 5637.00, 23.00, 116.61196887, 39.97997572, 502.60376643, 4.50283384, 0.06651463, 353.45437622, 0.0000, 83.4263, 2.2400
372, 20.30200, 5637.00, 23.00, 116.61196094, 39.98002880, 502.30005411, 4.49942541, 0.05981162, 353.45358276, 0.0000, 83.4074, 2.2400
373, 20.35742, 5637.00, 23.00, 116.61195330, 39.98007996, 502.00724603, 4.49606991, 0.05338471, 353.45281982, 0.0000, 83.3890, 2.2400
374, 20.41211, 5637.00, 23.00, 116.61194559, 39.98013158, 501.71171203, 4.49256039, 0.04693164, 353.45205688, 0.0000, 83.3705, 2.2400
375, 20.46631, 5637.00, 23.00, 116.61193803, 39.98018216, 501.42209185, 4.48895931, 0.04064257, 353.45129395, 0.0000, 83.3523, 2.2400
376, 20.52075, 5637.00, 23.00, 116.61193045, 39.98023290, 501.13139021, 4.48514652, 0.03436669, 353.45062256, 0.0000, 83.3342, 2.2400
377, 20.57593, 5637.00, 23.00, 116.61192278, 39.98028427, 500.83701933, 4.48105621, 0.02804659, 353.44989014, 0.0000, 83.3158, 2.2400
378, 20.63257, 5637.00, 23.00, 116.61191483, 39.98033753, 500.53166224, 4.47655201, 0.02153166, 353.44915771, 0.0000, 83.2966, 2.2400
379, 20.68848, 5637.00, 23.00, 116.61190701, 39.98038984, 500.23163380, 4.47186756, 0.01517316, 353.44848633, 0.0000, 83.2779, 2.2400
380, 20.74658, 5637.00, 23.00, 116.61189919, 39.98044224, 499.93092527, 4.46693897, 0.00884284, 353.44778442, 0.0000, 83.2591, 2.2400
381, 20.80420, 5637.00, 23.00, 116.61189092, 39.98049760, 499.61313249, 4.46151781, 0.00220402, 353.44711304, 0.0000, 83.2392, 2.2400
382, 20.85889, 5637.00, 23.00, 116.61188329, 39.98054870, 499.31954506, 4.45636559, -0.00387840, 353.44644165, 0.0000, 83.2209, 2.2400
383, 20.91382, 5637.00, 23.00, 116.61187568, 39.98059964, 499.02673440, 4.45115709, -0.00989235, 353.44583130, 0.0000, 83.2026, 2.2400
384, 20.97168, 5637.00, 23.00, 116.61186761, 39.98065370, 498.71584014, 4.44562578, -0.01621046, 353.44515991, 0.0000, 83.1832, 2.2400
385, 21.02759, 5637.00, 23.00, 116.61185980, 39.98070599, 498.41485699, 4.44033003, -0.02224916, 353.44458008, 0.0000, 83.1645, 2.2400
386, 21.08228, 5637.00, 23.00, 116.61185214, 39.98075725, 498.11959625, 4.43523884, -0.02807282, 353.44396973, 0.0000, 83.1460, 2.2400
387, 21.13721, 5637.00, 23.00, 116.61184449, 39.98080844, 497.82449901, 4.43029118, -0.03367665, 353.44335938, 0.0000, 83.1276, 2.2400
388, 21.19165, 5637.00, 23.00, 116.61183690, 39.98085929, 497.53111068, 4.42555952, -0.03918475, 353.44277954, 0.0000, 83.1094, 2.2400
389, 21.24585, 5637.00, 23.00, 116.61182931, 39.98091007, 497.23790885, 4.42104006, -0.04479793, 353.44223022, 0.0000, 83.0912, 2.2400
390, 21.30054, 5637.00, 23.00, 116.61182172, 39.98096095, 496.94389448, 4.41673326, -0.05050406, 353.44165039, 0.0000, 83.0729, 2.2400
391, 21.35547, 5637.00, 23.00, 116.61181411, 39.98101189, 496.64921700, 4.41265011, -0.05626741, 353.44104004, 0.0000, 83.0547, 2.2400
392, 21.40967, 5637.00, 23.00, 116.61180648, 39.98106296, 496.35356177, 4.40879917, -0.06207694, 353.44049072, 0.0000, 83.0364, 2.2400
393, 21.46387, 5637.00, 23.00, 116.61179893, 39.98111350, 496.06074873, 4.40522671, -0.06784387, 353.43991089, 0.0000, 83.0182, 2.2400
394, 21.51831, 5637.00, 23.00, 116.61179137, 39.98116406, 495.76746336, 4.40187693, -0.07362275, 353.43936157, 0.0000, 83.0001, 2.2400
395, 21.57373, 5637.00, 23.00, 116.61178359, 39.98121615, 495.46507369, 4.39863348, -0.07957964, 353.43875122, 0.0000, 82.9814, 2.2400
396, 21.62891, 5637.00, 23.00, 116.61177595, 39.98126728, 495.16800602, 4.39561272, -0.08542477, 353.43817139, 0.0000, 82.9630, 2.2400
397, 21.68384, 5637.00, 23.00, 116.61176829, 39.98131859, 494.86955915, 4.39268732, -0.09128327, 353.43759155, 0.0000, 82.9446, 2.2400
398, 21.73975, 5637.00, 23.00, 116.61176064, 39.98136975, 494.57178722, 4.38981867, -0.09711424, 353.43698120, 0.0000, 82.9262, 2.2400
399, 21.79858, 5637.00, 23.00, 116.61175225, 39.98142593, 494.24443670, 4.38665056, -0.10350255, 353.43634033, 0.0000, 82.9061, 2.2400
400, 21.85352, 5637.00, 23.00, 116.61174461, 39.98147704, 493.94637123, 4.38367891, -0.10929405, 353.43572998, 0.0000, 82.8878, 2.2400
401, 21.91016, 5637.00, 23.00, 116.61173670, 39.98152995, 493.63752136, 4.38045216, -0.11526921, 353.43508911, 0.0000, 82.8687, 2.2400
402, 21.96533, 5637.00, 23.00, 116.61172900, 39.98158145, 493.33662441, 4.37711096, -0.12106099, 353.43444824, 0.0000, 82.8502, 2.2400
403, 22.02026, 5637.00, 23.00, 116.61172137, 39.98163253, 493.03789258, 4.37356329, -0.12677792, 353.43380737, 0.0000, 82.8319, 2.2400
404, 22.07764, 5637.00, 23.00, 116.61171330, 39.98168649, 492.72210330, 4.36954546, -0.13278507, 353.43310547, 0.0000, 82.8125, 2.2400
405, 22.13232, 5637.00, 23.00, 116.61170568, 39.98173746, 492.42348521, 4.36549425, -0.13842793, 353.43243408, 0.0000, 82.7942, 2.2400
406, 22.18677, 5637.00, 23.00, 116.61169811, 39.98178808, 492.12665415, 4.36124325, -0.14399542, 353.43179321, 0.0000, 82.7760, 2.2400
407, 22.24146, 5637.00, 23.00, 116.61169049, 39.98183903, 491.82762544, 4.35677481, -0.14956197, 353.43109131, 0.0000, 82.7578, 2.2400
408, 22.29590, 5637.00, 23.00, 116.61168286, 39.98189008, 491.52773342, 4.35216856, -0.15509963, 353.43038940, 0.0000, 82.7394, 2.2400
409, 22.35034, 5637.00, 23.00, 116.61167529, 39.98194069, 491.23013860, 4.34755325, -0.16054630, 353.42965698, 0.0000, 82.7212, 2.2400
410, 22.40527, 5637.00, 23.00, 116.61166764, 39.98199178, 490.92938844, 4.34290838, -0.16600032, 353.42889404, 0.0000, 82.7029, 2.2400
411, 22.45923, 5637.00, 23.00, 116.61166002, 39.98204273, 490.62916675, 4.33836460, -0.17139170, 353.42810059, 0.0000, 82.6846, 2.2400
412, 22.51514, 5637.00, 23.00, 116.61165225, 39.98209470, 490.32256398, 4.33386946, -0.17683734, 353.42733765, 0.0000, 82.6660, 2.2400
413, 22.57104, 5637.00, 23.00, 116.61164453, 39.98214628, 490.01794811, 4.32959700, -0.18218714, 353.42648315, 0.0000, 82.6474, 2.2400
414, 22.62622, 5637.00, 23.00, 116.61163677, 39.98219810, 489.71159633, 4.32552958, -0.18750283, 353.42562866, 0.0000, 82.6288, 2.2400
415, 22.68188, 5637.00, 23.00, 116.61162901, 39.98224995, 489.40468182, 4.32171297, -0.19275866, 353.42477417, 0.0000, 82.6102, 2.2400
416, 22.73804, 5637.00, 23.00, 116.61162122, 39.98230200, 489.09622181, 4.31815577, -0.19796893, 353.42385864, 0.0000, 82.5915, 2.2400
417, 22.79858, 5637.00, 23.00, 116.61161275, 39.98235855, 488.76069003, 4.31462145, -0.20355219, 353.42285156, 0.0000, 82.5712, 2.2400
418, 22.85425, 5637.00, 23.00, 116.61160497, 39.98241050, 488.45203715, 4.31167364, -0.20860253, 353.42184448, 0.0000, 82.5525, 2.2400
419, 22.90967, 5637.00, 23.00, 116.61159721, 39.98246233, 488.14382923, 4.30902624, -0.21355969, 353.42083740, 0.0000, 82.5339, 2.2400
420, 22.96509, 5637.00, 23.00, 116.61158949, 39.98251389, 487.83681465, 4.30668354, -0.21840940, 353.41979980, 0.0000, 82.5154, 2.2400
421, 23.02246, 5637.00, 23.00, 116.61158138, 39.98256796, 487.51444259, 4.30452490, -0.22339717, 353.41870117, 0.0000, 82.4959, 2.2400
422, 23.08057, 5637.00, 23.00, 116.61157333, 39.98262175, 487.19342868, 4.30265188, -0.22825205, 353.41757202, 0.0000, 82.4766, 2.2400
423, 23.13574, 5637.00, 23.00, 116.61156562, 39.98267314, 486.88635105, 4.30107546, -0.23278230, 353.41641235, 0.0000, 82.4581, 2.2400
424, 23.19141, 5637.00, 23.00, 116.61155789, 39.98272471, 486.57792266, 4.29964972, -0.23720261, 353.41528320, 0.0000, 82.4397, 2.2400
425, 23.24658, 5637.00, 23.00, 116.61155016, 39.98277631, 486.26895892, 4.29830551, -0.24148040, 353.41409302, 0.0000, 82.4211, 2.2400
426, 23.30176, 5637.00, 23.00, 116.61154241, 39.98282796, 485.95940159, 4.29697800, -0.24557380, 353.41284180, 0.0000, 82.4025, 2.2400
427, 23.35767, 5637.00, 23.00, 116.61153463, 39.98287984, 485.64811766, 4.29559135, -0.24921659, 353.41159058, 0.0000, 82.3839, 2.2400
428, 23.41260, 5637.00, 23.00, 116.61152692, 39.98293128, 485.33917460, 4.29413939, -0.25208819, 353.41030884, 0.0000, 82.3654, 2.2400
429, 23.46924, 5637.00, 23.00, 116.61151902, 39.98298389, 485.02291529, 4.29254246, -0.25616288, 353.40896606, 0.0000, 82.3465, 2.2400
430, 23.52393, 5637.00, 23.00, 116.61151135, 39.98303507, 484.71497648, 4.29078817, -0.26048702, 353.40759277, 0.0000, 82.3281, 2.2400
431, 23.57959, 5637.00, 23.00, 116.61150359, 39.98308675, 484.40366722, 4.28877926, -0.26492983, 353.40618896, 0.0000, 82.3095, 2.2400
432, 23.63672, 5637.00, 23.00, 116.61149565, 39.98313966, 484.08472122, 4.28645277, -0.26947343, 353.40472412, 0.0000, 82.2906, 2.2400
433, 23.69360, 5637.00, 23.00, 116.61148764, 39.98319297, 483.76307690, 4.28384352, -0.27401751, 353.40319824, 0.0000, 82.2714, 2.2400
434, 23.75146, 5637.00, 23.00, 116.61147950, 39.98324722, 483.43541349, 4.28095388, -0.27859828, 353.40161133, 0.0000, 82.2519, 2.2400
435, 23.81323, 5637.00, 23.00, 116.61147087, 39.98330467, 483.08808278, 4.27771091, -0.28339151, 353.39990234, 0.0000, 82.2313, 2.2400
436, 23.86987, 5637.00, 23.00, 116.61146293, 39.98335752, 482.76822955, 4.27464914, -0.28774178, 353.39825439, 0.0000, 82.2122, 2.2400
437, 23.92676, 5637.00, 23.00, 116.61145496, 39.98341056, 482.44691428, 4.27159023, -0.29204819, 353.39657593, 0.0000, 82.1931, 2.2400
438, 23.98364, 5637.00, 23.00, 116.61144701, 39.98346346, 482.12619209, 4.26861954, -0.29627782, 353.39489746, 0.0000, 82.1742, 2.2400
439, 24.04175, 5637.00, 23.00, 116.61143881, 39.98351797, 481.79530149, 4.26570797, -0.30056551, 353.39309692, 0.0000, 82.1545, 2.2400
440, 24.09692, 5637.00, 23.00, 116.61143113, 39.98356903, 481.48504270, 4.26316738, -0.30451587, 353.39141846, 0.0000, 82.1362, 2.2400
441, 24.15259, 5637.00, 23.00, 116.61142332, 39.98362098, 481.16905354, 4.26080227, -0.30846593, 353.38961792, 0.0000, 82.1176, 2.2400
442, 24.20801, 5637.00, 23.00, 116.61141553, 39.98367274, 480.85396505, 4.25869751, -0.31232709, 353.38781738, 0.0000, 82.0989, 2.2400
443, 24.26318, 5637.00, 23.00, 116.61140781, 39.98372410, 480.54095197, 4.25687599, -0.31608653, 353.38598633, 0.0000, 82.0804, 2.2400
444, 24.31836, 5637.00, 23.00, 116.61140008, 39.98377542, 480.22786743, 4.25533676, -0.31976980, 353.38412476, 0.0000, 82.0620, 2.2400
445, 24.37402, 5637.00, 23.00, 116.61139229, 39.98382721, 479.91161244, 4.25406885, -0.32340798, 353.38223267, 0.0000, 82.0434, 2.2400
446, 24.42944, 5637.00, 23.00, 116.61138453, 39.98387874, 479.59666156, 4.25309372, -0.32695109, 353.38024902, 0.0000, 82.0249, 2.2400
447, 24.48608, 5637.00, 23.00, 116.61137656, 39.98393162, 479.27316306, 4.25238371, -0.33050367, 353.37820435, 0.0000, 82.0059, 2.2400
448, 24.54150, 5637.00, 23.00, 116.61136875, 39.98398349, 478.95554271, 4.25197029, -0.33390361, 353.37622070, 0.0000, 81.9872, 2.2400
449, 24.59692, 5637.00, 23.00, 116.61136101, 39.98403486, 478.64065240, 4.25182867, -0.33718994, 353.37417603, 0.0000, 81.9687, 2.2400
450, 24.65283, 5637.00, 23.00, 116.61135317, 39.98408689, 478.32147415, 4.25193548, -0.34043366, 353.37210083, 0.0000, 81.9501, 2.2400
